{
"type": "FeatureCollection",
"crs": { "type": "name", "properties": { "name": "urn:ogc:def:crs:OGC:1.3:CRS84" } },
                                                                                
"features": [
{ "type": "Feature", "properties": { "gml_id": "cbs_coropgebied_2015_labelpoint.fid--188a960_1519165968a_-1450", "id": 61093, "statcode": "cr40", "statnaam": "flevoland", "rubriek": "coropgebied" }, "geometry": { "type": "Point", "coordinates": [ 5.62116693536364, 52.528133882529865 ] } },
{ "type": "Feature", "properties": { "gml_id": "cbs_coropgebied_2015_labelpoint.fid--188a960_1519165968a_-144f", "id": 61092, "statcode": "cr39", "statnaam": "zuid-limburg", "rubriek": "coropgebied" }, "geometry": { "type": "Point", "coordinates": [ 5.864115987173749, 50.896198646833916 ] } },
{ "type": "Feature", "properties": { "gml_id": "cbs_coropgebied_2015_labelpoint.fid--188a960_1519165968a_-144e", "id": 61091, "statcode": "cr38", "statnaam": "midden-limburg", "rubriek": "coropgebied" }, "geometry": { "type": "Point", "coordinates": [ 5.913118591932442, 51.207947628190659 ] } },
{ "type": "Feature", "properties": { "gml_id": "cbs_coropgebied_2015_labelpoint.fid--188a960_1519165968a_-144d", "id": 61090, "statcode": "cr37", "statnaam": "noord-limburg", "rubriek": "coropgebied" }, "geometry": { "type": "Point", "coordinates": [ 6.029929010525418, 51.399526696464626 ] } },
{ "type": "Feature", "properties": { "gml_id": "cbs_coropgebied_2015_labelpoint.fid--188a960_1519165968a_-144c", "id": 61089, "statcode": "cr36", "statnaam": "zuidoost-noord-brabant", "rubriek": "coropgebied" }, "geometry": { "type": "Point", "coordinates": [ 5.501322725177458, 51.409476850385957 ] } },
{ "type": "Feature", "properties": { "gml_id": "cbs_coropgebied_2015_labelpoint.fid--188a960_1519165968a_-144b", "id": 61088, "statcode": "cr35", "statnaam": "noordoost-noord-brabant", "rubriek": "coropgebied" }, "geometry": { "type": "Point", "coordinates": [ 5.566028216635572, 51.694334695651115 ] } },
{ "type": "Feature", "properties": { "gml_id": "cbs_coropgebied_2015_labelpoint.fid--188a960_1519165968a_-144a", "id": 61087, "statcode": "cr34", "statnaam": "midden-noord-brabant", "rubriek": "coropgebied" }, "geometry": { "type": "Point", "coordinates": [ 4.97546572075257, 51.626315667081663 ] } },
{ "type": "Feature", "properties": { "gml_id": "cbs_coropgebied_2015_labelpoint.fid--188a960_1519165968a_-1449", "id": 61086, "statcode": "cr33", "statnaam": "west-noord-brabant", "rubriek": "coropgebied" }, "geometry": { "type": "Point", "coordinates": [ 4.563582306567032, 51.560796271904771 ] } },
{ "type": "Feature", "properties": { "gml_id": "cbs_coropgebied_2015_labelpoint.fid--188a960_1519165968a_-1448", "id": 61085, "statcode": "cr32", "statnaam": "overig zeeland", "rubriek": "coropgebied" }, "geometry": { "type": "Point", "coordinates": [ 3.78391035034601, 51.576326972285578 ] } },
{ "type": "Feature", "properties": { "gml_id": "cbs_coropgebied_2015_labelpoint.fid--188a960_1519165968a_-1447", "id": 61084, "statcode": "cr31", "statnaam": "zeeuwsch-vlaanderen", "rubriek": "coropgebied" }, "geometry": { "type": "Point", "coordinates": [ 3.801457092263422, 51.301000599762666 ] } },
{ "type": "Feature", "properties": { "gml_id": "cbs_coropgebied_2015_labelpoint.fid--188a960_1519165968a_-1446", "id": 61083, "statcode": "cr30", "statnaam": "zuidoost-zuid-holland", "rubriek": "coropgebied" }, "geometry": { "type": "Point", "coordinates": [ 4.851319868514272, 51.870689581741793 ] } },
{ "type": "Feature", "properties": { "gml_id": "cbs_coropgebied_2015_labelpoint.fid--188a960_1519165968a_-1445", "id": 61082, "statcode": "cr29", "statnaam": "groot-rijnmond", "rubriek": "coropgebied" }, "geometry": { "type": "Point", "coordinates": [ 4.368150333696143, 51.845369484897738 ] } },
{ "type": "Feature", "properties": { "gml_id": "cbs_coropgebied_2015_labelpoint.fid--188a960_1519165968a_-1444", "id": 61081, "statcode": "cr28", "statnaam": "oost-zuid-holland", "rubriek": "coropgebied" }, "geometry": { "type": "Point", "coordinates": [ 4.71160785937998, 52.079237256742005 ] } },
{ "type": "Feature", "properties": { "gml_id": "cbs_coropgebied_2015_labelpoint.fid--188a960_1519165968a_-1443", "id": 61080, "statcode": "cr27", "statnaam": "delft en westland", "rubriek": "coropgebied" }, "geometry": { "type": "Point", "coordinates": [ 4.268052145406959, 51.978537831730605 ] } },
{ "type": "Feature", "properties": { "gml_id": "cbs_coropgebied_2015_labelpoint.fid--188a960_1519165968a_-1442", "id": 61079, "statcode": "cr26", "statnaam": "agglomeratie 's-gravenhage", "rubriek": "coropgebied" }, "geometry": { "type": "Point", "coordinates": [ 4.376152717197892, 52.107991959695049 ] } },
{ "type": "Feature", "properties": { "gml_id": "cbs_coropgebied_2015_labelpoint.fid--188a960_1519165968a_-1441", "id": 61078, "statcode": "cr25", "statnaam": "agglomeratie leiden en bollenstreek", "rubriek": "coropgebied" }, "geometry": { "type": "Point", "coordinates": [ 4.497249909887889, 52.20806538599625 ] } },
{ "type": "Feature", "properties": { "gml_id": "cbs_coropgebied_2015_labelpoint.fid--188a960_1519165968a_-1440", "id": 61077, "statcode": "cr24", "statnaam": "het gooi en vechtstreek", "rubriek": "coropgebied" }, "geometry": { "type": "Point", "coordinates": [ 5.160128995166419, 52.243206140253605 ] } },
{ "type": "Feature", "properties": { "gml_id": "cbs_coropgebied_2015_labelpoint.fid--188a960_1519165968a_-143f", "id": 61076, "statcode": "cr23", "statnaam": "groot-amsterdam", "rubriek": "coropgebied" }, "geometry": { "type": "Point", "coordinates": [ 4.857924201578521, 52.344323260928078 ] } },
{ "type": "Feature", "properties": { "gml_id": "cbs_coropgebied_2015_labelpoint.fid--188a960_1519165968a_-143e", "id": 61075, "statcode": "cr22", "statnaam": "zaanstreek", "rubriek": "coropgebied" }, "geometry": { "type": "Point", "coordinates": [ 4.801740840200783, 52.473868009553314 ] } },
{ "type": "Feature", "properties": { "gml_id": "cbs_coropgebied_2015_labelpoint.fid--188a960_1519165968a_-143d", "id": 61074, "statcode": "cr21", "statnaam": "agglomeratie haarlem", "rubriek": "coropgebied" }, "geometry": { "type": "Point", "coordinates": [ 4.625966692657405, 52.379450629300777 ] } },
{ "type": "Feature", "properties": { "gml_id": "cbs_coropgebied_2015_labelpoint.fid--188a960_1519165968a_-143c", "id": 61073, "statcode": "cr20", "statnaam": "ijmond", "rubriek": "coropgebied" }, "geometry": { "type": "Point", "coordinates": [ 4.668450642966016, 52.505679329166497 ] } },
{ "type": "Feature", "properties": { "gml_id": "cbs_coropgebied_2015_labelpoint.fid--188a960_1519165968a_-143b", "id": 61072, "statcode": "cr19", "statnaam": "alkmaar en omgeving", "rubriek": "coropgebied" }, "geometry": { "type": "Point", "coordinates": [ 4.767771630361874, 52.629268105198001 ] } },
{ "type": "Feature", "properties": { "gml_id": "cbs_coropgebied_2015_labelpoint.fid--188a960_1519165968a_-143a", "id": 61071, "statcode": "cr18", "statnaam": "kop van noord-holland", "rubriek": "coropgebied" }, "geometry": { "type": "Point", "coordinates": [ 4.977906105578875, 52.764074500432542 ] } },
{ "type": "Feature", "properties": { "gml_id": "cbs_coropgebied_2015_labelpoint.fid--188a960_1519165968a_-1439", "id": 61070, "statcode": "cr17", "statnaam": "utrecht", "rubriek": "coropgebied" }, "geometry": { "type": "Point", "coordinates": [ 5.211069409995883, 52.079496885570414 ] } },
{ "type": "Feature", "properties": { "gml_id": "cbs_coropgebied_2015_labelpoint.fid--188a960_1519165968a_-1438", "id": 61069, "statcode": "cr16", "statnaam": "zuidwest-gelderland", "rubriek": "coropgebied" }, "geometry": { "type": "Point", "coordinates": [ 5.354465210804586, 51.862954628811117 ] } },
{ "type": "Feature", "properties": { "gml_id": "cbs_coropgebied_2015_labelpoint.fid--188a960_1519165968a_-1437", "id": 61068, "statcode": "cr15", "statnaam": "arnhem\/nijmegen", "rubriek": "coropgebied" }, "geometry": { "type": "Point", "coordinates": [ 5.853153059732723, 51.905537948588353 ] } },
{ "type": "Feature", "properties": { "gml_id": "cbs_coropgebied_2015_labelpoint.fid--188a960_1519165968a_-1436", "id": 61067, "statcode": "cr14", "statnaam": "achterhoek", "rubriek": "coropgebied" }, "geometry": { "type": "Point", "coordinates": [ 6.420530271090851, 52.047994244242247 ] } },
{ "type": "Feature", "properties": { "gml_id": "cbs_coropgebied_2015_labelpoint.fid--188a960_1519165968a_-1435", "id": 61066, "statcode": "cr13", "statnaam": "veluwe", "rubriek": "coropgebied" }, "geometry": { "type": "Point", "coordinates": [ 5.79423997755343, 52.224189165204102 ] } },
{ "type": "Feature", "properties": { "gml_id": "cbs_coropgebied_2015_labelpoint.fid--188a960_1519165968a_-1434", "id": 61065, "statcode": "cr12", "statnaam": "twente", "rubriek": "coropgebied" }, "geometry": { "type": "Point", "coordinates": [ 6.698430990442398, 52.303964133335157 ] } },
{ "type": "Feature", "properties": { "gml_id": "cbs_coropgebied_2015_labelpoint.fid--188a960_1519165968a_-1433", "id": 61064, "statcode": "cr11", "statnaam": "zuidwest-overijssel", "rubriek": "coropgebied" }, "geometry": { "type": "Point", "coordinates": [ 6.237302722237811, 52.346720428321561 ] } },
{ "type": "Feature", "properties": { "gml_id": "cbs_coropgebied_2015_labelpoint.fid--188a960_1519165968a_-1432", "id": 61063, "statcode": "cr10", "statnaam": "noord-overijssel", "rubriek": "coropgebied" }, "geometry": { "type": "Point", "coordinates": [ 6.279780217068402, 52.561235995089305 ] } },
{ "type": "Feature", "properties": { "gml_id": "cbs_coropgebied_2015_labelpoint.fid--188a960_1519165968a_-1431", "id": 61062, "statcode": "cr09", "statnaam": "zuidwest-drenthe", "rubriek": "coropgebied" }, "geometry": { "type": "Point", "coordinates": [ 6.376340385693599, 52.759877868316934 ] } },
{ "type": "Feature", "properties": { "gml_id": "cbs_coropgebied_2015_labelpoint.fid--188a960_1519165968a_-1430", "id": 61061, "statcode": "cr08", "statnaam": "zuidoost-drenthe", "rubriek": "coropgebied" }, "geometry": { "type": "Point", "coordinates": [ 6.835314550043019, 52.813171162756959 ] } },
{ "type": "Feature", "properties": { "gml_id": "cbs_coropgebied_2015_labelpoint.fid--188a960_1519165968a_-142f", "id": 61060, "statcode": "cr07", "statnaam": "noord-drenthe", "rubriek": "coropgebied" }, "geometry": { "type": "Point", "coordinates": [ 6.594597383161034, 52.975728407621716 ] } },
{ "type": "Feature", "properties": { "gml_id": "cbs_coropgebied_2015_labelpoint.fid--188a960_1519165968a_-142e", "id": 61059, "statcode": "cr06", "statnaam": "zuidoost-friesland", "rubriek": "coropgebied" }, "geometry": { "type": "Point", "coordinates": [ 6.088112303054181, 52.99133006911353 ] } },
{ "type": "Feature", "properties": { "gml_id": "cbs_coropgebied_2015_labelpoint.fid--188a960_1519165968a_-142d", "id": 61058, "statcode": "cr05", "statnaam": "zuidwest-friesland", "rubriek": "coropgebied" }, "geometry": { "type": "Point", "coordinates": [ 5.579227591742774, 52.953725749768246 ] } },
{ "type": "Feature", "properties": { "gml_id": "cbs_coropgebied_2015_labelpoint.fid--188a960_1519165968a_-142c", "id": 61057, "statcode": "cr04", "statnaam": "noord-friesland", "rubriek": "coropgebied" }, "geometry": { "type": "Point", "coordinates": [ 5.878284593892303, 53.242078962142806 ] } },
{ "type": "Feature", "properties": { "gml_id": "cbs_coropgebied_2015_labelpoint.fid--188a960_1519165968a_-142b", "id": 61056, "statcode": "cr03", "statnaam": "overig groningen", "rubriek": "coropgebied" }, "geometry": { "type": "Point", "coordinates": [ 6.492604166446755, 53.306744252806077 ] } },
{ "type": "Feature", "properties": { "gml_id": "cbs_coropgebied_2015_labelpoint.fid--188a960_1519165968a_-142a", "id": 61055, "statcode": "cr02", "statnaam": "delfzijl en omgeving", "rubriek": "coropgebied" }, "geometry": { "type": "Point", "coordinates": [ 6.848886512904174, 53.354727802299692 ] } },
{ "type": "Feature", "properties": { "gml_id": "cbs_coropgebied_2015_labelpoint.fid--188a960_1519165968a_-1429", "id": 61054, "statcode": "cr01", "statnaam": "oost-groningen", "rubriek": "coropgebied" }, "geometry": { "type": "Point", "coordinates": [ 7.008391568396251, 53.09773645033782 ] } }
]
}
