{
"type": "FeatureCollection",
"crs": { "type": "name", "properties": { "name": "urn:ogc:def:crs:OGC:1.3:CRS84" } },
                                                                                
"features": [
{ "type": "Feature", "properties": { "gml_id": "cbs_gemeente_2015_labelpoint.fid-63dcd447_151916311d1_-2b5e", "id": 61037, "statcode": "gm1987", "statnaam": "menterwolde", "rubriek": "gemeente" }, "geometry": { "type": "Point", "coordinates": [ 6.867310163904055, 53.162644092417487 ] } },
{ "type": "Feature", "properties": { "gml_id": "cbs_gemeente_2015_labelpoint.fid-63dcd447_151916311d1_-2b5d", "id": 61036, "statcode": "gm1955", "statnaam": "montferland", "rubriek": "gemeente" }, "geometry": { "type": "Point", "coordinates": [ 6.211419411411926, 51.906329953032881 ] } },
{ "type": "Feature", "properties": { "gml_id": "cbs_gemeente_2015_labelpoint.fid-63dcd447_151916311d1_-2b5c", "id": 61035, "statcode": "gm1927", "statnaam": "molenwaard", "rubriek": "gemeente" }, "geometry": { "type": "Point", "coordinates": [ 4.809415309217788, 51.888683653441937 ] } },
{ "type": "Feature", "properties": { "gml_id": "cbs_gemeente_2015_labelpoint.fid-63dcd447_151916311d1_-2b5b", "id": 61034, "statcode": "gm1926", "statnaam": "pijnacker-nootdorp", "rubriek": "gemeente" }, "geometry": { "type": "Point", "coordinates": [ 4.421495758070633, 52.011960195461043 ] } },
{ "type": "Feature", "properties": { "gml_id": "cbs_gemeente_2015_labelpoint.fid-63dcd447_151916311d1_-2b5a", "id": 61033, "statcode": "gm1924", "statnaam": "goeree-overflakkee", "rubriek": "gemeente" }, "geometry": { "type": "Point", "coordinates": [ 4.077210567163656, 51.765767892771528 ] } },
{ "type": "Feature", "properties": { "gml_id": "cbs_gemeente_2015_labelpoint.fid-63dcd447_151916311d1_-2b59", "id": 61032, "statcode": "gm1916", "statnaam": "leidschendam-voorburg", "rubriek": "gemeente" }, "geometry": { "type": "Point", "coordinates": [ 4.414127087755954, 52.08832993447173 ] } },
{ "type": "Feature", "properties": { "gml_id": "cbs_gemeente_2015_labelpoint.fid-63dcd447_151916311d1_-2b58", "id": 61031, "statcode": "gm1911", "statnaam": "hollands kroon", "rubriek": "gemeente" }, "geometry": { "type": "Point", "coordinates": [ 4.936634498155548, 52.825673863507419 ] } },
{ "type": "Feature", "properties": { "gml_id": "cbs_gemeente_2015_labelpoint.fid-63dcd447_151916311d1_-2b57", "id": 61030, "statcode": "gm1908", "statnaam": "menameradiel", "rubriek": "gemeente" }, "geometry": { "type": "Point", "coordinates": [ 5.672549205056525, 53.209630545979444 ] } },
{ "type": "Feature", "properties": { "gml_id": "cbs_gemeente_2015_labelpoint.fid-63dcd447_151916311d1_-2b56", "id": 61029, "statcode": "gm1904", "statnaam": "stichtse vecht", "rubriek": "gemeente" }, "geometry": { "type": "Point", "coordinates": [ 5.014768739701306, 52.192289456182614 ] } },
{ "type": "Feature", "properties": { "gml_id": "cbs_gemeente_2015_labelpoint.fid-63dcd447_151916311d1_-2b55", "id": 61028, "statcode": "gm1903", "statnaam": "eijsden-margraten", "rubriek": "gemeente" }, "geometry": { "type": "Point", "coordinates": [ 5.773109397631329, 50.818110277266385 ] } },
{ "type": "Feature", "properties": { "gml_id": "cbs_gemeente_2015_labelpoint.fid-63dcd447_151916311d1_-2b54", "id": 61027, "statcode": "gm1901", "statnaam": "bodegraven-reeuwijk", "rubriek": "gemeente" }, "geometry": { "type": "Point", "coordinates": [ 4.766629083359701, 52.062795610371737 ] } },
{ "type": "Feature", "properties": { "gml_id": "cbs_gemeente_2015_labelpoint.fid-63dcd447_151916311d1_-2b53", "id": 61026, "statcode": "gm1900", "statnaam": "s£dwest fryslƒn", "rubriek": "gemeente" }, "geometry": { "type": "Point", "coordinates": [ 5.544948110600783, 53.020282848410488 ] } },
{ "type": "Feature", "properties": { "gml_id": "cbs_gemeente_2015_labelpoint.fid-63dcd447_151916311d1_-2b52", "id": 61025, "statcode": "gm1896", "statnaam": "zwartewaterland", "rubriek": "gemeente" }, "geometry": { "type": "Point", "coordinates": [ 6.062630157227463, 52.606978243451586 ] } },
{ "type": "Feature", "properties": { "gml_id": "cbs_gemeente_2015_labelpoint.fid-63dcd447_151916311d1_-2b51", "id": 61024, "statcode": "gm1895", "statnaam": "oldambt", "rubriek": "gemeente" }, "geometry": { "type": "Point", "coordinates": [ 7.066055489624254, 53.189090504386932 ] } },
{ "type": "Feature", "properties": { "gml_id": "cbs_gemeente_2015_labelpoint.fid-63dcd447_151916311d1_-2b50", "id": 61023, "statcode": "gm1894", "statnaam": "peel en maas", "rubriek": "gemeente" }, "geometry": { "type": "Point", "coordinates": [ 5.999944862966753, 51.334761128698517 ] } },
{ "type": "Feature", "properties": { "gml_id": "cbs_gemeente_2015_labelpoint.fid-63dcd447_151916311d1_-2b4f", "id": 61022, "statcode": "gm1892", "statnaam": "zuidplas", "rubriek": "gemeente" }, "geometry": { "type": "Point", "coordinates": [ 4.617865528028143, 51.98918341488956 ] } },
{ "type": "Feature", "properties": { "gml_id": "cbs_gemeente_2015_labelpoint.fid-63dcd447_151916311d1_-2b4e", "id": 61021, "statcode": "gm1891", "statnaam": "dantumadiel", "rubriek": "gemeente" }, "geometry": { "type": "Point", "coordinates": [ 5.979522271448924, 53.268585855334138 ] } },
{ "type": "Feature", "properties": { "gml_id": "cbs_gemeente_2015_labelpoint.fid-63dcd447_151916311d1_-2b4d", "id": 61020, "statcode": "gm1884", "statnaam": "kaag en braassem", "rubriek": "gemeente" }, "geometry": { "type": "Point", "coordinates": [ 4.631995752691031, 52.188313248218968 ] } },
{ "type": "Feature", "properties": { "gml_id": "cbs_gemeente_2015_labelpoint.fid-63dcd447_151916311d1_-2b4c", "id": 61019, "statcode": "gm1883", "statnaam": "sittard-geleen", "rubriek": "gemeente" }, "geometry": { "type": "Point", "coordinates": [ 5.831588241811794, 50.997516256686019 ] } },
{ "type": "Feature", "properties": { "gml_id": "cbs_gemeente_2015_labelpoint.fid-63dcd447_151916311d1_-2b4b", "id": 61018, "statcode": "gm1876", "statnaam": "bronckhorst", "rubriek": "gemeente" }, "geometry": { "type": "Point", "coordinates": [ 6.298622604511892, 52.052893137996833 ] } },
{ "type": "Feature", "properties": { "gml_id": "cbs_gemeente_2015_labelpoint.fid-63dcd447_151916311d1_-2b4a", "id": 61017, "statcode": "gm1859", "statnaam": "berkelland", "rubriek": "gemeente" }, "geometry": { "type": "Point", "coordinates": [ 6.580648056838458, 52.107541542065377 ] } },
{ "type": "Feature", "properties": { "gml_id": "cbs_gemeente_2015_labelpoint.fid-63dcd447_151916311d1_-2b49", "id": 61016, "statcode": "gm1842", "statnaam": "midden-delfland", "rubriek": "gemeente" }, "geometry": { "type": "Point", "coordinates": [ 4.311678935761871, 51.971169406835969 ] } },
{ "type": "Feature", "properties": { "gml_id": "cbs_gemeente_2015_labelpoint.fid-63dcd447_151916311d1_-2b48", "id": 60936, "statcode": "gm0880", "statnaam": "wormerland", "rubriek": "gemeente" }, "geometry": { "type": "Point", "coordinates": [ 4.861772084739894, 52.49649213342984 ] } },
{ "type": "Feature", "properties": { "gml_id": "cbs_gemeente_2015_labelpoint.fid-63dcd447_151916311d1_-2b47", "id": 60935, "statcode": "gm0879", "statnaam": "zundert", "rubriek": "gemeente" }, "geometry": { "type": "Point", "coordinates": [ 4.637504479220096, 51.473552538305967 ] } },
{ "type": "Feature", "properties": { "gml_id": "cbs_gemeente_2015_labelpoint.fid-63dcd447_151916311d1_-2b46", "id": 60934, "statcode": "gm0874", "statnaam": "woudrichem", "rubriek": "gemeente" }, "geometry": { "type": "Point", "coordinates": [ 5.008978307473076, 51.784618455268685 ] } },
{ "type": "Feature", "properties": { "gml_id": "cbs_gemeente_2015_labelpoint.fid-63dcd447_151916311d1_-2b45", "id": 60933, "statcode": "gm0873", "statnaam": "woensdrecht", "rubriek": "gemeente" }, "geometry": { "type": "Point", "coordinates": [ 4.347452183422631, 51.409186292318793 ] } },
{ "type": "Feature", "properties": { "gml_id": "cbs_gemeente_2015_labelpoint.fid-63dcd447_151916311d1_-2b44", "id": 60932, "statcode": "gm0870", "statnaam": "werkendam", "rubriek": "gemeente" }, "geometry": { "type": "Point", "coordinates": [ 4.887477644811256, 51.76975518432608 ] } },
{ "type": "Feature", "properties": { "gml_id": "cbs_gemeente_2015_labelpoint.fid-63dcd447_151916311d1_-2b43", "id": 60931, "statcode": "gm0867", "statnaam": "waalwijk", "rubriek": "gemeente" }, "geometry": { "type": "Point", "coordinates": [ 5.014935209847541, 51.691408483186471 ] } },
{ "type": "Feature", "properties": { "gml_id": "cbs_gemeente_2015_labelpoint.fid-63dcd447_151916311d1_-2b42", "id": 60930, "statcode": "gm0866", "statnaam": "waalre", "rubriek": "gemeente" }, "geometry": { "type": "Point", "coordinates": [ 5.468053465882645, 51.387644188101291 ] } },
{ "type": "Feature", "properties": { "gml_id": "cbs_gemeente_2015_labelpoint.fid-63dcd447_151916311d1_-2b41", "id": 60929, "statcode": "gm0865", "statnaam": "vught", "rubriek": "gemeente" }, "geometry": { "type": "Point", "coordinates": [ 5.261839148807018, 51.655340464776735 ] } },
{ "type": "Feature", "properties": { "gml_id": "cbs_gemeente_2015_labelpoint.fid-63dcd447_151916311d1_-2b40", "id": 60928, "statcode": "gm0861", "statnaam": "veldhoven", "rubriek": "gemeente" }, "geometry": { "type": "Point", "coordinates": [ 5.386510865339143, 51.411609242392707 ] } },
{ "type": "Feature", "properties": { "gml_id": "cbs_gemeente_2015_labelpoint.fid-63dcd447_151916311d1_-2b3f", "id": 60927, "statcode": "gm0860", "statnaam": "veghel", "rubriek": "gemeente" }, "geometry": { "type": "Point", "coordinates": [ 5.571207023065758, 51.605717565443385 ] } },
{ "type": "Feature", "properties": { "gml_id": "cbs_gemeente_2015_labelpoint.fid-63dcd447_151916311d1_-2b3e", "id": 60926, "statcode": "gm0858", "statnaam": "valkenswaard", "rubriek": "gemeente" }, "geometry": { "type": "Point", "coordinates": [ 5.457428482742041, 51.32631205764045 ] } },
{ "type": "Feature", "properties": { "gml_id": "cbs_gemeente_2015_labelpoint.fid-63dcd447_151916311d1_-2b3d", "id": 60925, "statcode": "gm0856", "statnaam": "uden", "rubriek": "gemeente" }, "geometry": { "type": "Point", "coordinates": [ 5.656320243648766, 51.652410076327669 ] } },
{ "type": "Feature", "properties": { "gml_id": "cbs_gemeente_2015_labelpoint.fid-63dcd447_151916311d1_-2b3c", "id": 60924, "statcode": "gm0855", "statnaam": "tilburg", "rubriek": "gemeente" }, "geometry": { "type": "Point", "coordinates": [ 5.063933765244303, 51.574045916967684 ] } },
{ "type": "Feature", "properties": { "gml_id": "cbs_gemeente_2015_labelpoint.fid-63dcd447_151916311d1_-2b3b", "id": 60923, "statcode": "gm0852", "statnaam": "waterland", "rubriek": "gemeente" }, "geometry": { "type": "Point", "coordinates": [ 5.006973220770855, 52.444280915608637 ] } },
{ "type": "Feature", "properties": { "gml_id": "cbs_gemeente_2015_labelpoint.fid-63dcd447_151916311d1_-2b3a", "id": 60922, "statcode": "gm0851", "statnaam": "steenbergen", "rubriek": "gemeente" }, "geometry": { "type": "Point", "coordinates": [ 4.317073490743842, 51.598639726077032 ] } },
{ "type": "Feature", "properties": { "gml_id": "cbs_gemeente_2015_labelpoint.fid-63dcd447_151916311d1_-2b39", "id": 60921, "statcode": "gm0848", "statnaam": "son en breugel", "rubriek": "gemeente" }, "geometry": { "type": "Point", "coordinates": [ 5.485015064671032, 51.519153429241378 ] } },
{ "type": "Feature", "properties": { "gml_id": "cbs_gemeente_2015_labelpoint.fid-63dcd447_151916311d1_-2b38", "id": 60920, "statcode": "gm0847", "statnaam": "someren", "rubriek": "gemeente" }, "geometry": { "type": "Point", "coordinates": [ 5.704168640463108, 51.365865659578461 ] } },
{ "type": "Feature", "properties": { "gml_id": "cbs_gemeente_2015_labelpoint.fid-63dcd447_151916311d1_-2b37", "id": 60919, "statcode": "gm0846", "statnaam": "sint-oedenrode", "rubriek": "gemeente" }, "geometry": { "type": "Point", "coordinates": [ 5.465783759457951, 51.570771605202026 ] } },
{ "type": "Feature", "properties": { "gml_id": "cbs_gemeente_2015_labelpoint.fid-63dcd447_151916311d1_-2b36", "id": 60918, "statcode": "gm0845", "statnaam": "sint-michielsgestel", "rubriek": "gemeente" }, "geometry": { "type": "Point", "coordinates": [ 5.380328912897403, 51.615435194684544 ] } },
{ "type": "Feature", "properties": { "gml_id": "cbs_gemeente_2015_labelpoint.fid-63dcd447_151916311d1_-2b35", "id": 60917, "statcode": "gm0844", "statnaam": "schijndel", "rubriek": "gemeente" }, "geometry": { "type": "Point", "coordinates": [ 5.436992204649207, 51.62220209094199 ] } },
{ "type": "Feature", "properties": { "gml_id": "cbs_gemeente_2015_labelpoint.fid-63dcd447_151916311d1_-2b34", "id": 60916, "statcode": "gm0840", "statnaam": "rucphen", "rubriek": "gemeente" }, "geometry": { "type": "Point", "coordinates": [ 4.562527085930905, 51.519628154380939 ] } },
{ "type": "Feature", "properties": { "gml_id": "cbs_gemeente_2015_labelpoint.fid-63dcd447_151916311d1_-2b33", "id": 60915, "statcode": "gm0828", "statnaam": "oss", "rubriek": "gemeente" }, "geometry": { "type": "Point", "coordinates": [ 5.526103728213138, 51.779471984344909 ] } },
{ "type": "Feature", "properties": { "gml_id": "cbs_gemeente_2015_labelpoint.fid-63dcd447_151916311d1_-2b32", "id": 60914, "statcode": "gm0826", "statnaam": "oosterhout", "rubriek": "gemeente" }, "geometry": { "type": "Point", "coordinates": [ 4.858273352134516, 51.629673878106601 ] } },
{ "type": "Feature", "properties": { "gml_id": "cbs_gemeente_2015_labelpoint.fid-63dcd447_151916311d1_-2b31", "id": 60913, "statcode": "gm0824", "statnaam": "oisterwijk", "rubriek": "gemeente" }, "geometry": { "type": "Point", "coordinates": [ 5.201673924221344, 51.550759346163701 ] } },
{ "type": "Feature", "properties": { "gml_id": "cbs_gemeente_2015_labelpoint.fid-63dcd447_151916311d1_-2b30", "id": 60912, "statcode": "gm0823", "statnaam": "oirschot", "rubriek": "gemeente" }, "geometry": { "type": "Point", "coordinates": [ 5.29767663324128, 51.494675284111331 ] } },
{ "type": "Feature", "properties": { "gml_id": "cbs_gemeente_2015_labelpoint.fid-63dcd447_151916311d1_-2b2f", "id": 60911, "statcode": "gm0820", "statnaam": "nuenen, gerwen en nederwetten", "rubriek": "gemeente" }, "geometry": { "type": "Point", "coordinates": [ 5.555970102447066, 51.475702081639817 ] } },
{ "type": "Feature", "properties": { "gml_id": "cbs_gemeente_2015_labelpoint.fid-63dcd447_151916311d1_-2b2e", "id": 60910, "statcode": "gm0815", "statnaam": "mill en sint hubert", "rubriek": "gemeente" }, "geometry": { "type": "Point", "coordinates": [ 5.771337348646845, 51.682317590820325 ] } },
{ "type": "Feature", "properties": { "gml_id": "cbs_gemeente_2015_labelpoint.fid-63dcd447_151916311d1_-2b2d", "id": 60909, "statcode": "gm0809", "statnaam": "loon op zand", "rubriek": "gemeente" }, "geometry": { "type": "Point", "coordinates": [ 5.046774449129722, 51.636639006414434 ] } },
{ "type": "Feature", "properties": { "gml_id": "cbs_gemeente_2015_labelpoint.fid-63dcd447_151916311d1_-2b2c", "id": 60908, "statcode": "gm0798", "statnaam": "hilvarenbeek", "rubriek": "gemeente" }, "geometry": { "type": "Point", "coordinates": [ 5.15005977079214, 51.475853427389048 ] } },
{ "type": "Feature", "properties": { "gml_id": "cbs_gemeente_2015_labelpoint.fid-63dcd447_151916311d1_-2b2b", "id": 60907, "statcode": "gm0797", "statnaam": "heusden", "rubriek": "gemeente" }, "geometry": { "type": "Point", "coordinates": [ 5.166722173342836, 51.705877403787653 ] } },
{ "type": "Feature", "properties": { "gml_id": "cbs_gemeente_2015_labelpoint.fid-63dcd447_151916311d1_-2b2a", "id": 60906, "statcode": "gm0796", "statnaam": "'s-hertogenbosch", "rubriek": "gemeente" }, "geometry": { "type": "Point", "coordinates": [ 5.3370219680715, 51.718165053706443 ] } },
{ "type": "Feature", "properties": { "gml_id": "cbs_gemeente_2015_labelpoint.fid-63dcd447_151916311d1_-2b29", "id": 60905, "statcode": "gm0794", "statnaam": "helmond", "rubriek": "gemeente" }, "geometry": { "type": "Point", "coordinates": [ 5.653146535148466, 51.481076000697726 ] } },
{ "type": "Feature", "properties": { "gml_id": "cbs_gemeente_2015_labelpoint.fid-63dcd447_151916311d1_-2b28", "id": 60904, "statcode": "gm0788", "statnaam": "haaren", "rubriek": "gemeente" }, "geometry": { "type": "Point", "coordinates": [ 5.230757441665819, 51.621128615704777 ] } },
{ "type": "Feature", "properties": { "gml_id": "cbs_gemeente_2015_labelpoint.fid-63dcd447_151916311d1_-2b27", "id": 60903, "statcode": "gm0786", "statnaam": "grave", "rubriek": "gemeente" }, "geometry": { "type": "Point", "coordinates": [ 5.745216170228222, 51.739891166317463 ] } },
{ "type": "Feature", "properties": { "gml_id": "cbs_gemeente_2015_labelpoint.fid-63dcd447_151916311d1_-2b26", "id": 60902, "statcode": "gm0785", "statnaam": "goirle", "rubriek": "gemeente" }, "geometry": { "type": "Point", "coordinates": [ 5.03396194528981, 51.508638461491749 ] } },
{ "type": "Feature", "properties": { "gml_id": "cbs_gemeente_2015_labelpoint.fid-63dcd447_151916311d1_-2b25", "id": 60901, "statcode": "gm0784", "statnaam": "gilze en rijen", "rubriek": "gemeente" }, "geometry": { "type": "Point", "coordinates": [ 4.904572842702501, 51.554153066801952 ] } },
{ "type": "Feature", "properties": { "gml_id": "cbs_gemeente_2015_labelpoint.fid-63dcd447_151916311d1_-2b24", "id": 60900, "statcode": "gm0779", "statnaam": "geertruidenberg", "rubriek": "gemeente" }, "geometry": { "type": "Point", "coordinates": [ 4.878371244411062, 51.697177993926616 ] } },
{ "type": "Feature", "properties": { "gml_id": "cbs_gemeente_2015_labelpoint.fid-63dcd447_151916311d1_-2b23", "id": 60899, "statcode": "gm0777", "statnaam": "etten-leur", "rubriek": "gemeente" }, "geometry": { "type": "Point", "coordinates": [ 4.642928152050281, 51.574946606525188 ] } },
{ "type": "Feature", "properties": { "gml_id": "cbs_gemeente_2015_labelpoint.fid-63dcd447_151916311d1_-2b22", "id": 60898, "statcode": "gm0772", "statnaam": "eindhoven", "rubriek": "gemeente" }, "geometry": { "type": "Point", "coordinates": [ 5.452815044489651, 51.450260008184706 ] } },
{ "type": "Feature", "properties": { "gml_id": "cbs_gemeente_2015_labelpoint.fid-63dcd447_151916311d1_-2b21", "id": 60897, "statcode": "gm0770", "statnaam": "eersel", "rubriek": "gemeente" }, "geometry": { "type": "Point", "coordinates": [ 5.326810171767264, 51.373131028751011 ] } },
{ "type": "Feature", "properties": { "gml_id": "cbs_gemeente_2015_labelpoint.fid-63dcd447_151916311d1_-2b20", "id": 60896, "statcode": "gm0766", "statnaam": "dongen", "rubriek": "gemeente" }, "geometry": { "type": "Point", "coordinates": [ 4.954376428299661, 51.641870838826478 ] } },
{ "type": "Feature", "properties": { "gml_id": "cbs_gemeente_2015_labelpoint.fid-63dcd447_151916311d1_-2b1f", "id": 60895, "statcode": "gm0765", "statnaam": "pekela", "rubriek": "gemeente" }, "geometry": { "type": "Point", "coordinates": [ 6.971565629378555, 53.072255628554572 ] } },
{ "type": "Feature", "properties": { "gml_id": "cbs_gemeente_2015_labelpoint.fid-63dcd447_151916311d1_-2b1e", "id": 60894, "statcode": "gm0762", "statnaam": "deurne", "rubriek": "gemeente" }, "geometry": { "type": "Point", "coordinates": [ 5.831185014554904, 51.438916310753051 ] } },
{ "type": "Feature", "properties": { "gml_id": "cbs_gemeente_2015_labelpoint.fid-63dcd447_151916311d1_-2b1d", "id": 60893, "statcode": "gm0758", "statnaam": "breda", "rubriek": "gemeente" }, "geometry": { "type": "Point", "coordinates": [ 4.765116283656416, 51.579067295104544 ] } },
{ "type": "Feature", "properties": { "gml_id": "cbs_gemeente_2015_labelpoint.fid-63dcd447_151916311d1_-2b1c", "id": 60892, "statcode": "gm0757", "statnaam": "boxtel", "rubriek": "gemeente" }, "geometry": { "type": "Point", "coordinates": [ 5.325208424765988, 51.590673517321591 ] } },
{ "type": "Feature", "properties": { "gml_id": "cbs_gemeente_2015_labelpoint.fid-63dcd447_151916311d1_-2b1b", "id": 60891, "statcode": "gm0756", "statnaam": "boxmeer", "rubriek": "gemeente" }, "geometry": { "type": "Point", "coordinates": [ 5.952388709509152, 51.633682564143378 ] } },
{ "type": "Feature", "properties": { "gml_id": "cbs_gemeente_2015_labelpoint.fid-63dcd447_151916311d1_-2b1a", "id": 60890, "statcode": "gm0755", "statnaam": "boekel", "rubriek": "gemeente" }, "geometry": { "type": "Point", "coordinates": [ 5.692595559696477, 51.606092623002944 ] } },
{ "type": "Feature", "properties": { "gml_id": "cbs_gemeente_2015_labelpoint.fid-63dcd447_151916311d1_-2b19", "id": 60889, "statcode": "gm0753", "statnaam": "best", "rubriek": "gemeente" }, "geometry": { "type": "Point", "coordinates": [ 5.398496048084078, 51.516074906939238 ] } },
{ "type": "Feature", "properties": { "gml_id": "cbs_gemeente_2015_labelpoint.fid-63dcd447_151916311d1_-2b18", "id": 60888, "statcode": "gm0748", "statnaam": "bergen op zoom", "rubriek": "gemeente" }, "geometry": { "type": "Point", "coordinates": [ 4.295562589577417, 51.50461958136551 ] } },
{ "type": "Feature", "properties": { "gml_id": "cbs_gemeente_2015_labelpoint.fid-63dcd447_151916311d1_-2b17", "id": 60887, "statcode": "gm0744", "statnaam": "baarle-nassau", "rubriek": "gemeente" }, "geometry": { "type": "Point", "coordinates": [ 4.889396303761101, 51.446916159589136 ] } },
{ "type": "Feature", "properties": { "gml_id": "cbs_gemeente_2015_labelpoint.fid-63dcd447_151916311d1_-2b16", "id": 60886, "statcode": "gm0743", "statnaam": "asten", "rubriek": "gemeente" }, "geometry": { "type": "Point", "coordinates": [ 5.782225769649006, 51.375739486226045 ] } },
{ "type": "Feature", "properties": { "gml_id": "cbs_gemeente_2015_labelpoint.fid-63dcd447_151916311d1_-2b15", "id": 60885, "statcode": "gm0738", "statnaam": "aalburg", "rubriek": "gemeente" }, "geometry": { "type": "Point", "coordinates": [ 5.065608467801328, 51.740788705492072 ] } },
{ "type": "Feature", "properties": { "gml_id": "cbs_gemeente_2015_labelpoint.fid-63dcd447_151916311d1_-2b14", "id": 60884, "statcode": "gm0737", "statnaam": "tytsjerksteradiel", "rubriek": "gemeente" }, "geometry": { "type": "Point", "coordinates": [ 5.971784126243508, 53.18083321657322 ] } },
{ "type": "Feature", "properties": { "gml_id": "cbs_gemeente_2015_labelpoint.fid-63dcd447_151916311d1_-2b13", "id": 60883, "statcode": "gm0736", "statnaam": "de ronde venen", "rubriek": "gemeente" }, "geometry": { "type": "Point", "coordinates": [ 4.908667092773382, 52.207078846808756 ] } },
{ "type": "Feature", "properties": { "gml_id": "cbs_gemeente_2015_labelpoint.fid-63dcd447_151916311d1_-2b12", "id": 60882, "statcode": "gm0733", "statnaam": "lingewaal", "rubriek": "gemeente" }, "geometry": { "type": "Point", "coordinates": [ 5.078698009768823, 51.85088738714007 ] } },
{ "type": "Feature", "properties": { "gml_id": "cbs_gemeente_2015_labelpoint.fid-63dcd447_151916311d1_-2b11", "id": 60881, "statcode": "gm0718", "statnaam": "vlissingen", "rubriek": "gemeente" }, "geometry": { "type": "Point", "coordinates": [ 3.617136645053236, 51.458132326197543 ] } },
{ "type": "Feature", "properties": { "gml_id": "cbs_gemeente_2015_labelpoint.fid-63dcd447_151916311d1_-2b10", "id": 60880, "statcode": "gm0717", "statnaam": "veere", "rubriek": "gemeente" }, "geometry": { "type": "Point", "coordinates": [ 3.556760073709119, 51.52875692804254 ] } },
{ "type": "Feature", "properties": { "gml_id": "cbs_gemeente_2015_labelpoint.fid-63dcd447_151916311d1_-2b0f", "id": 60879, "statcode": "gm0716", "statnaam": "tholen", "rubriek": "gemeente" }, "geometry": { "type": "Point", "coordinates": [ 4.111741893599921, 51.564407006042451 ] } },
{ "type": "Feature", "properties": { "gml_id": "cbs_gemeente_2015_labelpoint.fid-63dcd447_151916311d1_-2b0e", "id": 60878, "statcode": "gm0715", "statnaam": "terneuzen", "rubriek": "gemeente" }, "geometry": { "type": "Point", "coordinates": [ 3.825687993404574, 51.276380465828225 ] } },
{ "type": "Feature", "properties": { "gml_id": "cbs_gemeente_2015_labelpoint.fid-63dcd447_151916311d1_-2b0d", "id": 60877, "statcode": "gm0707", "statnaam": "zederik", "rubriek": "gemeente" }, "geometry": { "type": "Point", "coordinates": [ 5.014155413979778, 51.926175464631129 ] } },
{ "type": "Feature", "properties": { "gml_id": "cbs_gemeente_2015_labelpoint.fid-63dcd447_151916311d1_-2b0c", "id": 60876, "statcode": "gm0703", "statnaam": "reimerswaal", "rubriek": "gemeente" }, "geometry": { "type": "Point", "coordinates": [ 4.135324209795415, 51.4142036943121 ] } },
{ "type": "Feature", "properties": { "gml_id": "cbs_gemeente_2015_labelpoint.fid-63dcd447_151916311d1_-2b0b", "id": 60875, "statcode": "gm0689", "statnaam": "giessenlanden", "rubriek": "gemeente" }, "geometry": { "type": "Point", "coordinates": [ 4.937091784618243, 51.877925683233556 ] } },
{ "type": "Feature", "properties": { "gml_id": "cbs_gemeente_2015_labelpoint.fid-63dcd447_151916311d1_-2b0a", "id": 60874, "statcode": "gm0687", "statnaam": "middelburg", "rubriek": "gemeente" }, "geometry": { "type": "Point", "coordinates": [ 3.662610750019517, 51.495044601506486 ] } },
{ "type": "Feature", "properties": { "gml_id": "cbs_gemeente_2015_labelpoint.fid-63dcd447_151916311d1_-2b09", "id": 60873, "statcode": "gm0678", "statnaam": "kapelle", "rubriek": "gemeente" }, "geometry": { "type": "Point", "coordinates": [ 3.962769518991755, 51.482209601257068 ] } },
{ "type": "Feature", "properties": { "gml_id": "cbs_gemeente_2015_labelpoint.fid-63dcd447_151916311d1_-2b08", "id": 60872, "statcode": "gm0677", "statnaam": "hulst", "rubriek": "gemeente" }, "geometry": { "type": "Point", "coordinates": [ 4.089575446583552, 51.311257047392196 ] } },
{ "type": "Feature", "properties": { "gml_id": "cbs_gemeente_2015_labelpoint.fid-63dcd447_151916311d1_-2b07", "id": 60871, "statcode": "gm0668", "statnaam": "west maas en waal", "rubriek": "gemeente" }, "geometry": { "type": "Point", "coordinates": [ 5.505291964678339, 51.858648121571385 ] } },
{ "type": "Feature", "properties": { "gml_id": "cbs_gemeente_2015_labelpoint.fid-63dcd447_151916311d1_-2b06", "id": 60870, "statcode": "gm0664", "statnaam": "goes", "rubriek": "gemeente" }, "geometry": { "type": "Point", "coordinates": [ 3.838357449973159, 51.516000914376249 ] } },
{ "type": "Feature", "properties": { "gml_id": "cbs_gemeente_2015_labelpoint.fid-63dcd447_151916311d1_-2b05", "id": 60869, "statcode": "gm0654", "statnaam": "borsele", "rubriek": "gemeente" }, "geometry": { "type": "Point", "coordinates": [ 3.813053875845283, 51.434455008564314 ] } },
{ "type": "Feature", "properties": { "gml_id": "cbs_gemeente_2015_labelpoint.fid-63dcd447_151916311d1_-2b04", "id": 60868, "statcode": "gm0642", "statnaam": "zwijndrecht", "rubriek": "gemeente" }, "geometry": { "type": "Point", "coordinates": [ 4.612788414975714, 51.818519100626602 ] } },
{ "type": "Feature", "properties": { "gml_id": "cbs_gemeente_2015_labelpoint.fid-63dcd447_151916311d1_-2b03", "id": 60867, "statcode": "gm0638", "statnaam": "zoeterwoude", "rubriek": "gemeente" }, "geometry": { "type": "Point", "coordinates": [ 4.511047416451046, 52.114231071763449 ] } },
{ "type": "Feature", "properties": { "gml_id": "cbs_gemeente_2015_labelpoint.fid-63dcd447_151916311d1_-2b02", "id": 60866, "statcode": "gm0637", "statnaam": "zoetermeer", "rubriek": "gemeente" }, "geometry": { "type": "Point", "coordinates": [ 4.486283821058897, 52.059286433864145 ] } },
{ "type": "Feature", "properties": { "gml_id": "cbs_gemeente_2015_labelpoint.fid-63dcd447_151916311d1_-2b01", "id": 60865, "statcode": "gm0632", "statnaam": "woerden", "rubriek": "gemeente" }, "geometry": { "type": "Point", "coordinates": [ 4.898476185318838, 52.115763368045634 ] } },
{ "type": "Feature", "properties": { "gml_id": "cbs_gemeente_2015_labelpoint.fid-63dcd447_151916311d1_-2b00", "id": 60864, "statcode": "gm0629", "statnaam": "wassenaar", "rubriek": "gemeente" }, "geometry": { "type": "Point", "coordinates": [ 4.373261206609035, 52.140209181095265 ] } },
{ "type": "Feature", "properties": { "gml_id": "cbs_gemeente_2015_labelpoint.fid-63dcd447_151916311d1_-2aff", "id": 60863, "statcode": "gm0627", "statnaam": "waddinxveen", "rubriek": "gemeente" }, "geometry": { "type": "Point", "coordinates": [ 4.648564278467811, 52.041710877538414 ] } },
{ "type": "Feature", "properties": { "gml_id": "cbs_gemeente_2015_labelpoint.fid-63dcd447_151916311d1_-2afe", "id": 60862, "statcode": "gm0626", "statnaam": "voorschoten", "rubriek": "gemeente" }, "geometry": { "type": "Point", "coordinates": [ 4.435202794356608, 52.122343926886956 ] } },
{ "type": "Feature", "properties": { "gml_id": "cbs_gemeente_2015_labelpoint.fid-63dcd447_151916311d1_-2afd", "id": 60861, "statcode": "gm0622", "statnaam": "vlaardingen", "rubriek": "gemeente" }, "geometry": { "type": "Point", "coordinates": [ 4.318750763526218, 51.916815081465543 ] } },
{ "type": "Feature", "properties": { "gml_id": "cbs_gemeente_2015_labelpoint.fid-63dcd447_151916311d1_-2afc", "id": 60860, "statcode": "gm0620", "statnaam": "vianen", "rubriek": "gemeente" }, "geometry": { "type": "Point", "coordinates": [ 5.110316867630844, 51.972371201831884 ] } },
{ "type": "Feature", "properties": { "gml_id": "cbs_gemeente_2015_labelpoint.fid-63dcd447_151916311d1_-2afb", "id": 60859, "statcode": "gm0617", "statnaam": "strijen", "rubriek": "gemeente" }, "geometry": { "type": "Point", "coordinates": [ 4.555236691556083, 51.739140506264263 ] } },
{ "type": "Feature", "properties": { "gml_id": "cbs_gemeente_2015_labelpoint.fid-63dcd447_151916311d1_-2afa", "id": 60858, "statcode": "gm0614", "statnaam": "westvoorne", "rubriek": "gemeente" }, "geometry": { "type": "Point", "coordinates": [ 4.078582905399103, 51.890285917088491 ] } },
{ "type": "Feature", "properties": { "gml_id": "cbs_gemeente_2015_labelpoint.fid-63dcd447_151916311d1_-2af9", "id": 60857, "statcode": "gm0613", "statnaam": "albrandswaard", "rubriek": "gemeente" }, "geometry": { "type": "Point", "coordinates": [ 4.436464705032877, 51.852135912661581 ] } },
{ "type": "Feature", "properties": { "gml_id": "cbs_gemeente_2015_labelpoint.fid-63dcd447_151916311d1_-2af8", "id": 60856, "statcode": "gm0611", "statnaam": "cromstrijen", "rubriek": "gemeente" }, "geometry": { "type": "Point", "coordinates": [ 4.459064072283026, 51.750715296761321 ] } },
{ "type": "Feature", "properties": { "gml_id": "cbs_gemeente_2015_labelpoint.fid-63dcd447_151916311d1_-2af7", "id": 60855, "statcode": "gm0610", "statnaam": "sliedrecht", "rubriek": "gemeente" }, "geometry": { "type": "Point", "coordinates": [ 4.770405010255142, 51.829871042210712 ] } },
{ "type": "Feature", "properties": { "gml_id": "cbs_gemeente_2015_labelpoint.fid-63dcd447_151916311d1_-2af6", "id": 60854, "statcode": "gm0606", "statnaam": "schiedam", "rubriek": "gemeente" }, "geometry": { "type": "Point", "coordinates": [ 4.384621326049781, 51.926240465368494 ] } },
{ "type": "Feature", "properties": { "gml_id": "cbs_gemeente_2015_labelpoint.fid-63dcd447_151916311d1_-2af5", "id": 60853, "statcode": "gm0603", "statnaam": "rijswijk", "rubriek": "gemeente" }, "geometry": { "type": "Point", "coordinates": [ 4.324333382385846, 52.034134220075053 ] } },
{ "type": "Feature", "properties": { "gml_id": "cbs_gemeente_2015_labelpoint.fid-63dcd447_151916311d1_-2af4", "id": 60852, "statcode": "gm0599", "statnaam": "rotterdam", "rubriek": "gemeente" }, "geometry": { "type": "Point", "coordinates": [ 4.473302144584808, 51.917992607353057 ] } },
{ "type": "Feature", "properties": { "gml_id": "cbs_gemeente_2015_labelpoint.fid-63dcd447_151916311d1_-2af3", "id": 60851, "statcode": "gm0597", "statnaam": "ridderkerk", "rubriek": "gemeente" }, "geometry": { "type": "Point", "coordinates": [ 4.59834624245116, 51.866368675200341 ] } },
{ "type": "Feature", "properties": { "gml_id": "cbs_gemeente_2015_labelpoint.fid-63dcd447_151916311d1_-2af2", "id": 60850, "statcode": "gm0590", "statnaam": "papendrecht", "rubriek": "gemeente" }, "geometry": { "type": "Point", "coordinates": [ 4.706362758457626, 51.832240622539217 ] } },
{ "type": "Feature", "properties": { "gml_id": "cbs_gemeente_2015_labelpoint.fid-63dcd447_151916311d1_-2af1", "id": 60849, "statcode": "gm0589", "statnaam": "oudewater", "rubriek": "gemeente" }, "geometry": { "type": "Point", "coordinates": [ 4.862637955144856, 52.02827092660177 ] } },
{ "type": "Feature", "properties": { "gml_id": "cbs_gemeente_2015_labelpoint.fid-63dcd447_151916311d1_-2af0", "id": 60848, "statcode": "gm0588", "statnaam": "korendijk", "rubriek": "gemeente" }, "geometry": { "type": "Point", "coordinates": [ 4.322312400618666, 51.781158443945984 ] } },
{ "type": "Feature", "properties": { "gml_id": "cbs_gemeente_2015_labelpoint.fid-63dcd447_151916311d1_-2aef", "id": 60847, "statcode": "gm0585", "statnaam": "binnenmaas", "rubriek": "gemeente" }, "geometry": { "type": "Point", "coordinates": [ 4.526759066639602, 51.805182739157715 ] } },
{ "type": "Feature", "properties": { "gml_id": "cbs_gemeente_2015_labelpoint.fid-63dcd447_151916311d1_-2aee", "id": 60846, "statcode": "gm0584", "statnaam": "oud-beijerland", "rubriek": "gemeente" }, "geometry": { "type": "Point", "coordinates": [ 4.415361061430906, 51.804996068266981 ] } },
{ "type": "Feature", "properties": { "gml_id": "cbs_gemeente_2015_labelpoint.fid-63dcd447_151916311d1_-2aed", "id": 60845, "statcode": "gm0579", "statnaam": "oegstgeest", "rubriek": "gemeente" }, "geometry": { "type": "Point", "coordinates": [ 4.475263384222218, 52.185732329502841 ] } },
{ "type": "Feature", "properties": { "gml_id": "cbs_gemeente_2015_labelpoint.fid-63dcd447_151916311d1_-2aec", "id": 60844, "statcode": "gm0576", "statnaam": "noordwijkerhout", "rubriek": "gemeente" }, "geometry": { "type": "Point", "coordinates": [ 4.50834243489886, 52.269502302059117 ] } },
{ "type": "Feature", "properties": { "gml_id": "cbs_gemeente_2015_labelpoint.fid-63dcd447_151916311d1_-2aeb", "id": 60843, "statcode": "gm0575", "statnaam": "noordwijk", "rubriek": "gemeente" }, "geometry": { "type": "Point", "coordinates": [ 4.448669784580442, 52.256280146097936 ] } },
{ "type": "Feature", "properties": { "gml_id": "cbs_gemeente_2015_labelpoint.fid-63dcd447_151916311d1_-2aea", "id": 60842, "statcode": "gm0569", "statnaam": "nieuwkoop", "rubriek": "gemeente" }, "geometry": { "type": "Point", "coordinates": [ 4.786579176022685, 52.173534717394652 ] } },
{ "type": "Feature", "properties": { "gml_id": "cbs_gemeente_2015_labelpoint.fid-63dcd447_151916311d1_-2ae9", "id": 60841, "statcode": "gm1930", "statnaam": "nissewaard", "rubriek": "gemeente" }, "geometry": { "type": "Point", "coordinates": [ 4.265514344916447, 51.83186822055189 ] } },
{ "type": "Feature", "properties": { "gml_id": "cbs_gemeente_2015_labelpoint.fid-63dcd447_151916311d1_-2ae8", "id": 60840, "statcode": "gm0556", "statnaam": "maassluis", "rubriek": "gemeente" }, "geometry": { "type": "Point", "coordinates": [ 4.252811359354121, 51.922129865587131 ] } },
{ "type": "Feature", "properties": { "gml_id": "cbs_gemeente_2015_labelpoint.fid-63dcd447_151916311d1_-2ae7", "id": 60839, "statcode": "gm0553", "statnaam": "lisse", "rubriek": "gemeente" }, "geometry": { "type": "Point", "coordinates": [ 4.543250983652913, 52.25660701867394 ] } },
{ "type": "Feature", "properties": { "gml_id": "cbs_gemeente_2015_labelpoint.fid-63dcd447_151916311d1_-2ae6", "id": 60838, "statcode": "gm0547", "statnaam": "leiderdorp", "rubriek": "gemeente" }, "geometry": { "type": "Point", "coordinates": [ 4.543414782635693, 52.156011457664242 ] } },
{ "type": "Feature", "properties": { "gml_id": "cbs_gemeente_2015_labelpoint.fid-63dcd447_151916311d1_-2ae5", "id": 60837, "statcode": "gm0546", "statnaam": "leiden", "rubriek": "gemeente" }, "geometry": { "type": "Point", "coordinates": [ 4.482255485694887, 52.151756085345021 ] } },
{ "type": "Feature", "properties": { "gml_id": "cbs_gemeente_2015_labelpoint.fid-63dcd447_151916311d1_-2ae4", "id": 60836, "statcode": "gm0545", "statnaam": "leerdam", "rubriek": "gemeente" }, "geometry": { "type": "Point", "coordinates": [ 5.085541395505343, 51.903963414037271 ] } },
{ "type": "Feature", "properties": { "gml_id": "cbs_gemeente_2015_labelpoint.fid-63dcd447_151916311d1_-2ae3", "id": 60835, "statcode": "gm0542", "statnaam": "krimpen aan den ijssel", "rubriek": "gemeente" }, "geometry": { "type": "Point", "coordinates": [ 4.59634444322384, 51.915837750699019 ] } },
{ "type": "Feature", "properties": { "gml_id": "cbs_gemeente_2015_labelpoint.fid-63dcd447_151916311d1_-2ae2", "id": 60834, "statcode": "gm0537", "statnaam": "katwijk", "rubriek": "gemeente" }, "geometry": { "type": "Point", "coordinates": [ 4.420564575949512, 52.187409316086388 ] } },
{ "type": "Feature", "properties": { "gml_id": "cbs_gemeente_2015_labelpoint.fid-63dcd447_151916311d1_-2ae1", "id": 60833, "statcode": "gm0534", "statnaam": "hillegom", "rubriek": "gemeente" }, "geometry": { "type": "Point", "coordinates": [ 4.577176748282294, 52.295789986271387 ] } },
{ "type": "Feature", "properties": { "gml_id": "cbs_gemeente_2015_labelpoint.fid-63dcd447_151916311d1_-2ae0", "id": 60832, "statcode": "gm0532", "statnaam": "stede broec", "rubriek": "gemeente" }, "geometry": { "type": "Point", "coordinates": [ 5.222341499155364, 52.701297092442196 ] } },
{ "type": "Feature", "properties": { "gml_id": "cbs_gemeente_2015_labelpoint.fid-63dcd447_151916311d1_-2adf", "id": 60831, "statcode": "gm0531", "statnaam": "hendrik-ido-ambacht", "rubriek": "gemeente" }, "geometry": { "type": "Point", "coordinates": [ 4.636400845104642, 51.837665630925379 ] } },
{ "type": "Feature", "properties": { "gml_id": "cbs_gemeente_2015_labelpoint.fid-63dcd447_151916311d1_-2ade", "id": 60830, "statcode": "gm0530", "statnaam": "hellevoetsluis", "rubriek": "gemeente" }, "geometry": { "type": "Point", "coordinates": [ 4.132842925166833, 51.848682347096165 ] } },
{ "type": "Feature", "properties": { "gml_id": "cbs_gemeente_2015_labelpoint.fid-63dcd447_151916311d1_-2add", "id": 60829, "statcode": "gm0523", "statnaam": "hardinxveld-giessendam", "rubriek": "gemeente" }, "geometry": { "type": "Point", "coordinates": [ 4.86533879828279, 51.825010250460053 ] } },
{ "type": "Feature", "properties": { "gml_id": "cbs_gemeente_2015_labelpoint.fid-63dcd447_151916311d1_-2adc", "id": 60828, "statcode": "gm0518", "statnaam": "'s-gravenhage", "rubriek": "gemeente" }, "geometry": { "type": "Point", "coordinates": [ 4.286124016348737, 52.077234927840678 ] } },
{ "type": "Feature", "properties": { "gml_id": "cbs_gemeente_2015_labelpoint.fid-63dcd447_151916311d1_-2adb", "id": 60827, "statcode": "gm0513", "statnaam": "gouda", "rubriek": "gemeente" }, "geometry": { "type": "Point", "coordinates": [ 4.702791358301638, 52.014722778433004 ] } },
{ "type": "Feature", "properties": { "gml_id": "cbs_gemeente_2015_labelpoint.fid-63dcd447_151916311d1_-2ada", "id": 60826, "statcode": "gm0512", "statnaam": "gorinchem", "rubriek": "gemeente" }, "geometry": { "type": "Point", "coordinates": [ 4.978052844489324, 51.840378031912039 ] } },
{ "type": "Feature", "properties": { "gml_id": "cbs_gemeente_2015_labelpoint.fid-63dcd447_151916311d1_-2ad9", "id": 60825, "statcode": "gm0505", "statnaam": "dordrecht", "rubriek": "gemeente" }, "geometry": { "type": "Point", "coordinates": [ 4.753022455381695, 51.800169951186035 ] } },
{ "type": "Feature", "properties": { "gml_id": "cbs_gemeente_2015_labelpoint.fid-63dcd447_151916311d1_-2ad8", "id": 60824, "statcode": "gm0503", "statnaam": "delft", "rubriek": "gemeente" }, "geometry": { "type": "Point", "coordinates": [ 4.363966778708313, 51.998764033650147 ] } },
{ "type": "Feature", "properties": { "gml_id": "cbs_gemeente_2015_labelpoint.fid-63dcd447_151916311d1_-2ad7", "id": 60823, "statcode": "gm0502", "statnaam": "capelle aan den ijssel", "rubriek": "gemeente" }, "geometry": { "type": "Point", "coordinates": [ 4.591759455879831, 51.935087394876319 ] } },
{ "type": "Feature", "properties": { "gml_id": "cbs_gemeente_2015_labelpoint.fid-63dcd447_151916311d1_-2ad6", "id": 60822, "statcode": "gm0501", "statnaam": "brielle", "rubriek": "gemeente" }, "geometry": { "type": "Point", "coordinates": [ 4.187586669096786, 51.882091912006281 ] } },
{ "type": "Feature", "properties": { "gml_id": "cbs_gemeente_2015_labelpoint.fid-63dcd447_151916311d1_-2ad5", "id": 60821, "statcode": "gm0498", "statnaam": "drechterland", "rubriek": "gemeente" }, "geometry": { "type": "Point", "coordinates": [ 5.169064795451325, 52.66623418618061 ] } },
{ "type": "Feature", "properties": { "gml_id": "cbs_gemeente_2015_labelpoint.fid-63dcd447_151916311d1_-2ad4", "id": 60820, "statcode": "gm1931", "statnaam": "krimpernerwaard", "rubriek": "gemeente" }, "geometry": { "type": "Point", "coordinates": [ 4.725300936852947, 51.954287347397937 ] } },
{ "type": "Feature", "properties": { "gml_id": "cbs_gemeente_2015_labelpoint.fid-63dcd447_151916311d1_-2ad3", "id": 60819, "statcode": "gm0489", "statnaam": "barendrecht", "rubriek": "gemeente" }, "geometry": { "type": "Point", "coordinates": [ 4.525710999108201, 51.849408903178471 ] } },
{ "type": "Feature", "properties": { "gml_id": "cbs_gemeente_2015_labelpoint.fid-63dcd447_151916311d1_-2ad2", "id": 60818, "statcode": "gm0482", "statnaam": "alblasserdam", "rubriek": "gemeente" }, "geometry": { "type": "Point", "coordinates": [ 4.663621856848756, 51.861135121575686 ] } },
{ "type": "Feature", "properties": { "gml_id": "cbs_gemeente_2015_labelpoint.fid-63dcd447_151916311d1_-2ad1", "id": 60817, "statcode": "gm0479", "statnaam": "zaanstad", "rubriek": "gemeente" }, "geometry": { "type": "Point", "coordinates": [ 4.768358784405452, 52.473959148999604 ] } },
{ "type": "Feature", "properties": { "gml_id": "cbs_gemeente_2015_labelpoint.fid-63dcd447_151916311d1_-2ad0", "id": 60816, "statcode": "gm0478", "statnaam": "zeevang", "rubriek": "gemeente" }, "geometry": { "type": "Point", "coordinates": [ 5.007574347727287, 52.559366519161784 ] } },
{ "type": "Feature", "properties": { "gml_id": "cbs_gemeente_2015_labelpoint.fid-63dcd447_151916311d1_-2acf", "id": 60815, "statcode": "gm0473", "statnaam": "zandvoort", "rubriek": "gemeente" }, "geometry": { "type": "Point", "coordinates": [ 4.542656712802778, 52.358114426576144 ] } },
{ "type": "Feature", "properties": { "gml_id": "cbs_gemeente_2015_labelpoint.fid-63dcd447_151916311d1_-2ace", "id": 60814, "statcode": "gm0457", "statnaam": "weesp", "rubriek": "gemeente" }, "geometry": { "type": "Point", "coordinates": [ 5.0613181269726, 52.302546149442961 ] } },
{ "type": "Feature", "properties": { "gml_id": "cbs_gemeente_2015_labelpoint.fid-63dcd447_151916311d1_-2acd", "id": 60813, "statcode": "gm0453", "statnaam": "velsen", "rubriek": "gemeente" }, "geometry": { "type": "Point", "coordinates": [ 4.638934275095909, 52.447382362687392 ] } },
{ "type": "Feature", "properties": { "gml_id": "cbs_gemeente_2015_labelpoint.fid-63dcd447_151916311d1_-2acc", "id": 60812, "statcode": "gm0451", "statnaam": "uithoorn", "rubriek": "gemeente" }, "geometry": { "type": "Point", "coordinates": [ 4.787464681552604, 52.242495606961874 ] } },
{ "type": "Feature", "properties": { "gml_id": "cbs_gemeente_2015_labelpoint.fid-63dcd447_151916311d1_-2acb", "id": 60811, "statcode": "gm0450", "statnaam": "uitgeest", "rubriek": "gemeente" }, "geometry": { "type": "Point", "coordinates": [ 4.73650638154521, 52.521108253838904 ] } },
{ "type": "Feature", "properties": { "gml_id": "cbs_gemeente_2015_labelpoint.fid-63dcd447_151916311d1_-2aca", "id": 60810, "statcode": "gm0448", "statnaam": "texel", "rubriek": "gemeente" }, "geometry": { "type": "Point", "coordinates": [ 4.808472523326353, 53.078341902095524 ] } },
{ "type": "Feature", "properties": { "gml_id": "cbs_gemeente_2015_labelpoint.fid-63dcd447_151916311d1_-2ac9", "id": 60809, "statcode": "gm0441", "statnaam": "schagen", "rubriek": "gemeente" }, "geometry": { "type": "Point", "coordinates": [ 4.742973659397116, 52.775446913699625 ] } },
{ "type": "Feature", "properties": { "gml_id": "cbs_gemeente_2015_labelpoint.fid-63dcd447_151916311d1_-2ac8", "id": 60808, "statcode": "gm0439", "statnaam": "purmerend", "rubriek": "gemeente" }, "geometry": { "type": "Point", "coordinates": [ 4.972728367721813, 52.498144937801442 ] } },
{ "type": "Feature", "properties": { "gml_id": "cbs_gemeente_2015_labelpoint.fid-63dcd447_151916311d1_-2ac7", "id": 60807, "statcode": "gm0437", "statnaam": "ouder-amstel", "rubriek": "gemeente" }, "geometry": { "type": "Point", "coordinates": [ 4.912421967830409, 52.288560453890874 ] } },
{ "type": "Feature", "properties": { "gml_id": "cbs_gemeente_2015_labelpoint.fid-63dcd447_151916311d1_-2ac6", "id": 60806, "statcode": "gm0432", "statnaam": "opmeer", "rubriek": "gemeente" }, "geometry": { "type": "Point", "coordinates": [ 4.955083030354061, 52.713712123980628 ] } },
{ "type": "Feature", "properties": { "gml_id": "cbs_gemeente_2015_labelpoint.fid-63dcd447_151916311d1_-2ac5", "id": 60805, "statcode": "gm0431", "statnaam": "oostzaan", "rubriek": "gemeente" }, "geometry": { "type": "Point", "coordinates": [ 4.874886065871498, 52.450048009482494 ] } },
{ "type": "Feature", "properties": { "gml_id": "cbs_gemeente_2015_labelpoint.fid-63dcd447_151916311d1_-2ac4", "id": 60804, "statcode": "gm0425", "statnaam": "naarden", "rubriek": "gemeente" }, "geometry": { "type": "Point", "coordinates": [ 5.163102256089873, 52.295376853343328 ] } },
{ "type": "Feature", "properties": { "gml_id": "cbs_gemeente_2015_labelpoint.fid-63dcd447_151916311d1_-2ac3", "id": 60803, "statcode": "gm0424", "statnaam": "muiden", "rubriek": "gemeente" }, "geometry": { "type": "Point", "coordinates": [ 5.071180649347537, 52.329976475179727 ] } },
{ "type": "Feature", "properties": { "gml_id": "cbs_gemeente_2015_labelpoint.fid-63dcd447_151916311d1_-2ac2", "id": 60802, "statcode": "gm0420", "statnaam": "medemblik", "rubriek": "gemeente" }, "geometry": { "type": "Point", "coordinates": [ 5.096689856932668, 52.722346852464234 ] } },
{ "type": "Feature", "properties": { "gml_id": "cbs_gemeente_2015_labelpoint.fid-63dcd447_151916311d1_-2ac1", "id": 60801, "statcode": "gm0417", "statnaam": "laren", "rubriek": "gemeente" }, "geometry": { "type": "Point", "coordinates": [ 5.216473054564674, 52.242285313740659 ] } },
{ "type": "Feature", "properties": { "gml_id": "cbs_gemeente_2015_labelpoint.fid-63dcd447_151916311d1_-2ac0", "id": 60800, "statcode": "gm0416", "statnaam": "langedijk", "rubriek": "gemeente" }, "geometry": { "type": "Point", "coordinates": [ 4.788363705772399, 52.689866453224461 ] } },
{ "type": "Feature", "properties": { "gml_id": "cbs_gemeente_2015_labelpoint.fid-63dcd447_151916311d1_-2abf", "id": 60799, "statcode": "gm0415", "statnaam": "landsmeer", "rubriek": "gemeente" }, "geometry": { "type": "Point", "coordinates": [ 4.921897572882184, 52.453036970206739 ] } },
{ "type": "Feature", "properties": { "gml_id": "cbs_gemeente_2015_labelpoint.fid-63dcd447_151916311d1_-2abe", "id": 60798, "statcode": "gm0406", "statnaam": "huizen", "rubriek": "gemeente" }, "geometry": { "type": "Point", "coordinates": [ 5.230605134058267, 52.291324132107036 ] } },
{ "type": "Feature", "properties": { "gml_id": "cbs_gemeente_2015_labelpoint.fid-63dcd447_151916311d1_-2abd", "id": 60797, "statcode": "gm0405", "statnaam": "hoorn", "rubriek": "gemeente" }, "geometry": { "type": "Point", "coordinates": [ 5.065163480913509, 52.655726177849353 ] } },
{ "type": "Feature", "properties": { "gml_id": "cbs_gemeente_2015_labelpoint.fid-63dcd447_151916311d1_-2abc", "id": 60796, "statcode": "gm0402", "statnaam": "hilversum", "rubriek": "gemeente" }, "geometry": { "type": "Point", "coordinates": [ 5.160698202055612, 52.217645818262611 ] } },
{ "type": "Feature", "properties": { "gml_id": "cbs_gemeente_2015_labelpoint.fid-63dcd447_151916311d1_-2abb", "id": 60795, "statcode": "gm0400", "statnaam": "den helder", "rubriek": "gemeente" }, "geometry": { "type": "Point", "coordinates": [ 4.76034808056711, 52.922068992278895 ] } },
{ "type": "Feature", "properties": { "gml_id": "cbs_gemeente_2015_labelpoint.fid-63dcd447_151916311d1_-2aba", "id": 60794, "statcode": "gm0399", "statnaam": "heiloo", "rubriek": "gemeente" }, "geometry": { "type": "Point", "coordinates": [ 4.711210019908747, 52.601809143174648 ] } },
{ "type": "Feature", "properties": { "gml_id": "cbs_gemeente_2015_labelpoint.fid-63dcd447_151916311d1_-2ab9", "id": 60793, "statcode": "gm0398", "statnaam": "heerhugowaard", "rubriek": "gemeente" }, "geometry": { "type": "Point", "coordinates": [ 4.842349572113669, 52.682648593293933 ] } },
{ "type": "Feature", "properties": { "gml_id": "cbs_gemeente_2015_labelpoint.fid-63dcd447_151916311d1_-2ab8", "id": 60792, "statcode": "gm0397", "statnaam": "heemstede", "rubriek": "gemeente" }, "geometry": { "type": "Point", "coordinates": [ 4.615417479630099, 52.345920244968951 ] } },
{ "type": "Feature", "properties": { "gml_id": "cbs_gemeente_2015_labelpoint.fid-63dcd447_151916311d1_-2ab7", "id": 60791, "statcode": "gm0396", "statnaam": "heemskerk", "rubriek": "gemeente" }, "geometry": { "type": "Point", "coordinates": [ 4.653525306700464, 52.51484522280181 ] } },
{ "type": "Feature", "properties": { "gml_id": "cbs_gemeente_2015_labelpoint.fid-63dcd447_151916311d1_-2ab6", "id": 60790, "statcode": "gm0394", "statnaam": "haarlemmermeer", "rubriek": "gemeente" }, "geometry": { "type": "Point", "coordinates": [ 4.6840719190384, 52.307888682487196 ] } },
{ "type": "Feature", "properties": { "gml_id": "cbs_gemeente_2015_labelpoint.fid-63dcd447_151916311d1_-2ab5", "id": 60789, "statcode": "gm0393", "statnaam": "haarlemmerliede en spaarnwoude", "rubriek": "gemeente" }, "geometry": { "type": "Point", "coordinates": [ 4.713653498217458, 52.406145384468786 ] } },
{ "type": "Feature", "properties": { "gml_id": "cbs_gemeente_2015_labelpoint.fid-63dcd447_151916311d1_-2ab4", "id": 60788, "statcode": "gm0392", "statnaam": "haarlem", "rubriek": "gemeente" }, "geometry": { "type": "Point", "coordinates": [ 4.643422787091766, 52.378977359202239 ] } },
{ "type": "Feature", "properties": { "gml_id": "cbs_gemeente_2015_labelpoint.fid-63dcd447_151916311d1_-2ab3", "id": 60787, "statcode": "gm0388", "statnaam": "enkhuizen", "rubriek": "gemeente" }, "geometry": { "type": "Point", "coordinates": [ 5.280959992096932, 52.71771091676888 ] } },
{ "type": "Feature", "properties": { "gml_id": "cbs_gemeente_2015_labelpoint.fid-63dcd447_151916311d1_-2ab2", "id": 60786, "statcode": "gm0385", "statnaam": "edam-volendam", "rubriek": "gemeente" }, "geometry": { "type": "Point", "coordinates": [ 5.04179565277971, 52.503515865284726 ] } },
{ "type": "Feature", "properties": { "gml_id": "cbs_gemeente_2015_labelpoint.fid-63dcd447_151916311d1_-2ab1", "id": 60785, "statcode": "gm0384", "statnaam": "diemen", "rubriek": "gemeente" }, "geometry": { "type": "Point", "coordinates": [ 4.989861555379523, 52.33677775714046 ] } },
{ "type": "Feature", "properties": { "gml_id": "cbs_gemeente_2015_labelpoint.fid-63dcd447_151916311d1_-2ab0", "id": 60784, "statcode": "gm0383", "statnaam": "castricum", "rubriek": "gemeente" }, "geometry": { "type": "Point", "coordinates": [ 4.690063454707674, 52.553855741265117 ] } },
{ "type": "Feature", "properties": { "gml_id": "cbs_gemeente_2015_labelpoint.fid-63dcd447_151916311d1_-2aaf", "id": 60783, "statcode": "gm0381", "statnaam": "bussum", "rubriek": "gemeente" }, "geometry": { "type": "Point", "coordinates": [ 5.169340689521945, 52.269701516546007 ] } },
{ "type": "Feature", "properties": { "gml_id": "cbs_gemeente_2015_labelpoint.fid-63dcd447_151916311d1_-2aae", "id": 60782, "statcode": "gm0377", "statnaam": "bloemendaal", "rubriek": "gemeente" }, "geometry": { "type": "Point", "coordinates": [ 4.587448577696557, 52.350615007641807 ] } },
{ "type": "Feature", "properties": { "gml_id": "cbs_gemeente_2015_labelpoint.fid-63dcd447_151916311d1_-2aad", "id": 60781, "statcode": "gm0376", "statnaam": "blaricum", "rubriek": "gemeente" }, "geometry": { "type": "Point", "coordinates": [ 5.255124357002047, 52.277351153946441 ] } },
{ "type": "Feature", "properties": { "gml_id": "cbs_gemeente_2015_labelpoint.fid-63dcd447_151916311d1_-2aac", "id": 60780, "statcode": "gm0375", "statnaam": "beverwijk", "rubriek": "gemeente" }, "geometry": { "type": "Point", "coordinates": [ 4.645161968771914, 52.489151462631831 ] } },
{ "type": "Feature", "properties": { "gml_id": "cbs_gemeente_2015_labelpoint.fid-63dcd447_151916311d1_-2aab", "id": 60779, "statcode": "gm0373", "statnaam": "bergen (nh.)", "rubriek": "gemeente" }, "geometry": { "type": "Point", "coordinates": [ 4.680253303502235, 52.674633103448436 ] } },
{ "type": "Feature", "properties": { "gml_id": "cbs_gemeente_2015_labelpoint.fid-63dcd447_151916311d1_-2aaa", "id": 60778, "statcode": "gm0370", "statnaam": "beemster", "rubriek": "gemeente" }, "geometry": { "type": "Point", "coordinates": [ 4.915446304288611, 52.561364029455902 ] } },
{ "type": "Feature", "properties": { "gml_id": "cbs_gemeente_2015_labelpoint.fid-63dcd447_151916311d1_-2aa9", "id": 60777, "statcode": "gm0363", "statnaam": "amsterdam", "rubriek": "gemeente" }, "geometry": { "type": "Point", "coordinates": [ 4.898919584969849, 52.372954651086765 ] } },
{ "type": "Feature", "properties": { "gml_id": "cbs_gemeente_2015_labelpoint.fid-63dcd447_151916311d1_-2aa8", "id": 60776, "statcode": "gm0362", "statnaam": "amstelveen", "rubriek": "gemeente" }, "geometry": { "type": "Point", "coordinates": [ 4.851913538269724, 52.286603309167752 ] } },
{ "type": "Feature", "properties": { "gml_id": "cbs_gemeente_2015_labelpoint.fid-63dcd447_151916311d1_-2aa7", "id": 60775, "statcode": "gm0361", "statnaam": "alkmaar", "rubriek": "gemeente" }, "geometry": { "type": "Point", "coordinates": [ 4.803199666018341, 52.604953003524209 ] } },
{ "type": "Feature", "properties": { "gml_id": "cbs_gemeente_2015_labelpoint.fid-63dcd447_151916311d1_-2aa6", "id": 60774, "statcode": "gm0358", "statnaam": "aalsmeer", "rubriek": "gemeente" }, "geometry": { "type": "Point", "coordinates": [ 4.747200090985777, 52.24963656878883 ] } },
{ "type": "Feature", "properties": { "gml_id": "cbs_gemeente_2015_labelpoint.fid-63dcd447_151916311d1_-2aa5", "id": 60773, "statcode": "gm0356", "statnaam": "nieuwegein", "rubriek": "gemeente" }, "geometry": { "type": "Point", "coordinates": [ 5.096444407286016, 52.031300312862193 ] } },
{ "type": "Feature", "properties": { "gml_id": "cbs_gemeente_2015_labelpoint.fid-63dcd447_151916311d1_-2aa4", "id": 60772, "statcode": "gm0355", "statnaam": "zeist", "rubriek": "gemeente" }, "geometry": { "type": "Point", "coordinates": [ 5.255201114984033, 52.098141792144162 ] } },
{ "type": "Feature", "properties": { "gml_id": "cbs_gemeente_2015_labelpoint.fid-63dcd447_151916311d1_-2aa3", "id": 60771, "statcode": "gm0353", "statnaam": "ijsselstein", "rubriek": "gemeente" }, "geometry": { "type": "Point", "coordinates": [ 5.027876128776736, 52.032027891186615 ] } },
{ "type": "Feature", "properties": { "gml_id": "cbs_gemeente_2015_labelpoint.fid-63dcd447_151916311d1_-2aa2", "id": 60770, "statcode": "gm0352", "statnaam": "wijk bij duurstede", "rubriek": "gemeente" }, "geometry": { "type": "Point", "coordinates": [ 5.329244599785198, 51.990002729027211 ] } },
{ "type": "Feature", "properties": { "gml_id": "cbs_gemeente_2015_labelpoint.fid-63dcd447_151916311d1_-2aa1", "id": 60769, "statcode": "gm0351", "statnaam": "woudenberg", "rubriek": "gemeente" }, "geometry": { "type": "Point", "coordinates": [ 5.427743371977616, 52.080052688953749 ] } },
{ "type": "Feature", "properties": { "gml_id": "cbs_gemeente_2015_labelpoint.fid-63dcd447_151916311d1_-2aa0", "id": 60768, "statcode": "gm0345", "statnaam": "veenendaal", "rubriek": "gemeente" }, "geometry": { "type": "Point", "coordinates": [ 5.551435751585554, 52.024578370028962 ] } },
{ "type": "Feature", "properties": { "gml_id": "cbs_gemeente_2015_labelpoint.fid-63dcd447_151916311d1_-2a9f", "id": 60767, "statcode": "gm0344", "statnaam": "utrecht", "rubriek": "gemeente" }, "geometry": { "type": "Point", "coordinates": [ 5.082680023228253, 52.096824851676509 ] } },
{ "type": "Feature", "properties": { "gml_id": "cbs_gemeente_2015_labelpoint.fid-63dcd447_151916311d1_-2a9e", "id": 60766, "statcode": "gm0342", "statnaam": "soest", "rubriek": "gemeente" }, "geometry": { "type": "Point", "coordinates": [ 5.296560852810892, 52.155569021428015 ] } },
{ "type": "Feature", "properties": { "gml_id": "cbs_gemeente_2015_labelpoint.fid-63dcd447_151916311d1_-2a9d", "id": 60765, "statcode": "gm0340", "statnaam": "rhenen", "rubriek": "gemeente" }, "geometry": { "type": "Point", "coordinates": [ 5.552548011140207, 51.978584382962111 ] } },
{ "type": "Feature", "properties": { "gml_id": "cbs_gemeente_2015_labelpoint.fid-63dcd447_151916311d1_-2a9c", "id": 60764, "statcode": "gm0339", "statnaam": "renswoude", "rubriek": "gemeente" }, "geometry": { "type": "Point", "coordinates": [ 5.529360787264213, 52.060811207498119 ] } },
{ "type": "Feature", "properties": { "gml_id": "cbs_gemeente_2015_labelpoint.fid-63dcd447_151916311d1_-2a9b", "id": 60763, "statcode": "gm0335", "statnaam": "montfoort", "rubriek": "gemeente" }, "geometry": { "type": "Point", "coordinates": [ 4.94276653142184, 52.045848976784093 ] } },
{ "type": "Feature", "properties": { "gml_id": "cbs_gemeente_2015_labelpoint.fid-63dcd447_151916311d1_-2a99", "id": 60762, "statcode": "gm0331", "statnaam": "lopik", "rubriek": "gemeente" }, "geometry": { "type": "Point", "coordinates": [ 4.948418914795485, 51.989657720949708 ] } },
{ "type": "Feature", "properties": { "gml_id": "cbs_gemeente_2015_labelpoint.fid-63dcd447_151916311d1_-2a98", "id": 60761, "statcode": "gm0327", "statnaam": "leusden", "rubriek": "gemeente" }, "geometry": { "type": "Point", "coordinates": [ 5.411647854910231, 52.124134336721596 ] } },
{ "type": "Feature", "properties": { "gml_id": "cbs_gemeente_2015_labelpoint.fid-63dcd447_151916311d1_-2a97", "id": 60760, "statcode": "gm0321", "statnaam": "houten", "rubriek": "gemeente" }, "geometry": { "type": "Point", "coordinates": [ 5.19546584091473, 51.999864798993023 ] } },
{ "type": "Feature", "properties": { "gml_id": "cbs_gemeente_2015_labelpoint.fid-63dcd447_151916311d1_-2a96", "id": 60759, "statcode": "gm0317", "statnaam": "eemnes", "rubriek": "gemeente" }, "geometry": { "type": "Point", "coordinates": [ 5.277107145698186, 52.252145006303927 ] } },
{ "type": "Feature", "properties": { "gml_id": "cbs_gemeente_2015_labelpoint.fid-63dcd447_151916311d1_-2a95", "id": 60758, "statcode": "gm0313", "statnaam": "bunschoten", "rubriek": "gemeente" }, "geometry": { "type": "Point", "coordinates": [ 5.357088614223738, 52.239807190487497 ] } },
{ "type": "Feature", "properties": { "gml_id": "cbs_gemeente_2015_labelpoint.fid-63dcd447_151916311d1_-2a94", "id": 60757, "statcode": "gm0312", "statnaam": "bunnik", "rubriek": "gemeente" }, "geometry": { "type": "Point", "coordinates": [ 5.216477211775717, 52.0423660799866 ] } },
{ "type": "Feature", "properties": { "gml_id": "cbs_gemeente_2015_labelpoint.fid-63dcd447_151916311d1_-2a93", "id": 60756, "statcode": "gm0310", "statnaam": "de bilt", "rubriek": "gemeente" }, "geometry": { "type": "Point", "coordinates": [ 5.162992905629548, 52.136695972488162 ] } },
{ "type": "Feature", "properties": { "gml_id": "cbs_gemeente_2015_labelpoint.fid-63dcd447_151916311d1_-2a92", "id": 60755, "statcode": "gm0308", "statnaam": "baarn", "rubriek": "gemeente" }, "geometry": { "type": "Point", "coordinates": [ 5.273839297720878, 52.206924210805575 ] } },
{ "type": "Feature", "properties": { "gml_id": "cbs_gemeente_2015_labelpoint.fid-63dcd447_151916311d1_-2a91", "id": 60754, "statcode": "gm0307", "statnaam": "amersfoort", "rubriek": "gemeente" }, "geometry": { "type": "Point", "coordinates": [ 5.395317324306116, 52.175835218012956 ] } },
{ "type": "Feature", "properties": { "gml_id": "cbs_gemeente_2015_labelpoint.fid-63dcd447_151916311d1_-2a90", "id": 60753, "statcode": "gm0304", "statnaam": "neerijnen", "rubriek": "gemeente" }, "geometry": { "type": "Point", "coordinates": [ 5.28384777873001, 51.839247514522569 ] } },
{ "type": "Feature", "properties": { "gml_id": "cbs_gemeente_2015_labelpoint.fid-63dcd447_151916311d1_-2a8f", "id": 60752, "statcode": "gm0303", "statnaam": "dronten", "rubriek": "gemeente" }, "geometry": { "type": "Point", "coordinates": [ 5.711356533810817, 52.50079782719471 ] } },
{ "type": "Feature", "properties": { "gml_id": "cbs_gemeente_2015_labelpoint.fid-63dcd447_151916311d1_-2a8e", "id": 60751, "statcode": "gm0302", "statnaam": "nunspeet", "rubriek": "gemeente" }, "geometry": { "type": "Point", "coordinates": [ 5.779761416420143, 52.333215516528583 ] } },
{ "type": "Feature", "properties": { "gml_id": "cbs_gemeente_2015_labelpoint.fid-63dcd447_151916311d1_-2a8d", "id": 60750, "statcode": "gm0301", "statnaam": "zutphen", "rubriek": "gemeente" }, "geometry": { "type": "Point", "coordinates": [ 6.234219849185976, 52.134350955208177 ] } },
{ "type": "Feature", "properties": { "gml_id": "cbs_gemeente_2015_labelpoint.fid-63dcd447_151916311d1_-2a8c", "id": 60749, "statcode": "gm0299", "statnaam": "zevenaar", "rubriek": "gemeente" }, "geometry": { "type": "Point", "coordinates": [ 6.085118643070936, 51.95394248787229 ] } },
{ "type": "Feature", "properties": { "gml_id": "cbs_gemeente_2015_labelpoint.fid-63dcd447_151916311d1_-2a8b", "id": 60748, "statcode": "gm0297", "statnaam": "zaltbommel", "rubriek": "gemeente" }, "geometry": { "type": "Point", "coordinates": [ 5.162331679157046, 51.788760719518663 ] } },
{ "type": "Feature", "properties": { "gml_id": "cbs_gemeente_2015_labelpoint.fid-63dcd447_151916311d1_-2a8a", "id": 60747, "statcode": "gm0296", "statnaam": "wijchen", "rubriek": "gemeente" }, "geometry": { "type": "Point", "coordinates": [ 5.699440147257421, 51.811615274698845 ] } },
{ "type": "Feature", "properties": { "gml_id": "cbs_gemeente_2015_labelpoint.fid-63dcd447_151916311d1_-2a89", "id": 60746, "statcode": "gm0294", "statnaam": "winterswijk", "rubriek": "gemeente" }, "geometry": { "type": "Point", "coordinates": [ 6.732696527169572, 51.966067976665656 ] } },
{ "type": "Feature", "properties": { "gml_id": "cbs_gemeente_2015_labelpoint.fid-63dcd447_151916311d1_-2a88", "id": 60745, "statcode": "gm0293", "statnaam": "westervoort", "rubriek": "gemeente" }, "geometry": { "type": "Point", "coordinates": [ 5.975642861735443, 51.957894139423395 ] } },
{ "type": "Feature", "properties": { "gml_id": "cbs_gemeente_2015_labelpoint.fid-63dcd447_151916311d1_-2a87", "id": 60744, "statcode": "gm0289", "statnaam": "wageningen", "rubriek": "gemeente" }, "geometry": { "type": "Point", "coordinates": [ 5.665044095310972, 51.973878195839902 ] } },
{ "type": "Feature", "properties": { "gml_id": "cbs_gemeente_2015_labelpoint.fid-63dcd447_151916311d1_-2a86", "id": 60743, "statcode": "gm0285", "statnaam": "voorst", "rubriek": "gemeente" }, "geometry": { "type": "Point", "coordinates": [ 6.111493995718623, 52.212458447568181 ] } },
{ "type": "Feature", "properties": { "gml_id": "cbs_gemeente_2015_labelpoint.fid-63dcd447_151916311d1_-2a85", "id": 60742, "statcode": "gm0281", "statnaam": "tiel", "rubriek": "gemeente" }, "geometry": { "type": "Point", "coordinates": [ 5.398689272878973, 51.876099477149104 ] } },
{ "type": "Feature", "properties": { "gml_id": "cbs_gemeente_2015_labelpoint.fid-63dcd447_151916311d1_-2a84", "id": 60741, "statcode": "gm0279", "statnaam": "scherpenzeel", "rubriek": "gemeente" }, "geometry": { "type": "Point", "coordinates": [ 5.499252105431596, 52.090953714332954 ] } },
{ "type": "Feature", "properties": { "gml_id": "cbs_gemeente_2015_labelpoint.fid-63dcd447_151916311d1_-2a83", "id": 60740, "statcode": "gm0277", "statnaam": "rozendaal", "rubriek": "gemeente" }, "geometry": { "type": "Point", "coordinates": [ 5.972684718645667, 52.040017513741866 ] } },
{ "type": "Feature", "properties": { "gml_id": "cbs_gemeente_2015_labelpoint.fid-63dcd447_151916311d1_-2a82", "id": 60739, "statcode": "gm0275", "statnaam": "rheden", "rubriek": "gemeente" }, "geometry": { "type": "Point", "coordinates": [ 6.044612783645803, 52.041911830606857 ] } },
{ "type": "Feature", "properties": { "gml_id": "cbs_gemeente_2015_labelpoint.fid-63dcd447_151916311d1_-2a81", "id": 60738, "statcode": "gm0274", "statnaam": "renkum", "rubriek": "gemeente" }, "geometry": { "type": "Point", "coordinates": [ 5.792393260372829, 51.992158920249118 ] } },
{ "type": "Feature", "properties": { "gml_id": "cbs_gemeente_2015_labelpoint.fid-63dcd447_151916311d1_-2a80", "id": 60737, "statcode": "gm0273", "statnaam": "putten", "rubriek": "gemeente" }, "geometry": { "type": "Point", "coordinates": [ 5.581125407827391, 52.242087227963957 ] } },
{ "type": "Feature", "properties": { "gml_id": "cbs_gemeente_2015_labelpoint.fid-63dcd447_151916311d1_-2a7f", "id": 60736, "statcode": "gm0269", "statnaam": "oldebroek", "rubriek": "gemeente" }, "geometry": { "type": "Point", "coordinates": [ 5.9390141060998, 52.43661249925281 ] } },
{ "type": "Feature", "properties": { "gml_id": "cbs_gemeente_2015_labelpoint.fid-63dcd447_151916311d1_-2a7e", "id": 60735, "statcode": "gm0268", "statnaam": "nijmegen", "rubriek": "gemeente" }, "geometry": { "type": "Point", "coordinates": [ 5.833273901733817, 51.839649089556019 ] } },
{ "type": "Feature", "properties": { "gml_id": "cbs_gemeente_2015_labelpoint.fid-63dcd447_151916311d1_-2a7d", "id": 60734, "statcode": "gm0267", "statnaam": "nijkerk", "rubriek": "gemeente" }, "geometry": { "type": "Point", "coordinates": [ 5.514058800091277, 52.212842131739308 ] } },
{ "type": "Feature", "properties": { "gml_id": "cbs_gemeente_2015_labelpoint.fid-63dcd447_151916311d1_-2a7c", "id": 60733, "statcode": "gm0263", "statnaam": "maasdriel", "rubriek": "gemeente" }, "geometry": { "type": "Point", "coordinates": [ 5.310129382961051, 51.777391668042313 ] } },
{ "type": "Feature", "properties": { "gml_id": "cbs_gemeente_2015_labelpoint.fid-63dcd447_151916311d1_-2a7b", "id": 60732, "statcode": "gm0262", "statnaam": "lochem", "rubriek": "gemeente" }, "geometry": { "type": "Point", "coordinates": [ 6.354970741488907, 52.181438031267064 ] } },
{ "type": "Feature", "properties": { "gml_id": "cbs_gemeente_2015_labelpoint.fid-63dcd447_151916311d1_-2a7a", "id": 60731, "statcode": "gm0252", "statnaam": "heumen", "rubriek": "gemeente" }, "geometry": { "type": "Point", "coordinates": [ 5.811441302724776, 51.773988285371374 ] } },
{ "type": "Feature", "properties": { "gml_id": "cbs_gemeente_2015_labelpoint.fid-63dcd447_151916311d1_-2a79", "id": 60730, "statcode": "gm0246", "statnaam": "heerde", "rubriek": "gemeente" }, "geometry": { "type": "Point", "coordinates": [ 6.040865975151076, 52.404736048996085 ] } },
{ "type": "Feature", "properties": { "gml_id": "cbs_gemeente_2015_labelpoint.fid-63dcd447_151916311d1_-2a78", "id": 60729, "statcode": "gm0244", "statnaam": "hattem", "rubriek": "gemeente" }, "geometry": { "type": "Point", "coordinates": [ 6.052154089577329, 52.474354851445433 ] } },
{ "type": "Feature", "properties": { "gml_id": "cbs_gemeente_2015_labelpoint.fid-63dcd447_151916311d1_-2a77", "id": 60728, "statcode": "gm0243", "statnaam": "harderwijk", "rubriek": "gemeente" }, "geometry": { "type": "Point", "coordinates": [ 5.644344550638559, 52.343132476117738 ] } },
{ "type": "Feature", "properties": { "gml_id": "cbs_gemeente_2015_labelpoint.fid-63dcd447_151916311d1_-2a76", "id": 60727, "statcode": "gm0241", "statnaam": "groesbeek", "rubriek": "gemeente" }, "geometry": { "type": "Point", "coordinates": [ 5.924543724858797, 51.820851806181665 ] } },
{ "type": "Feature", "properties": { "gml_id": "cbs_gemeente_2015_labelpoint.fid-63dcd447_151916311d1_-2a75", "id": 60726, "statcode": "gm0236", "statnaam": "geldermalsen", "rubriek": "gemeente" }, "geometry": { "type": "Point", "coordinates": [ 5.226646840746564, 51.888852805483545 ] } },
{ "type": "Feature", "properties": { "gml_id": "cbs_gemeente_2015_labelpoint.fid-63dcd447_151916311d1_-2a74", "id": 60725, "statcode": "gm0233", "statnaam": "ermelo", "rubriek": "gemeente" }, "geometry": { "type": "Point", "coordinates": [ 5.654900315150512, 52.287996426637875 ] } },
{ "type": "Feature", "properties": { "gml_id": "cbs_gemeente_2015_labelpoint.fid-63dcd447_151916311d1_-2a73", "id": 60724, "statcode": "gm0232", "statnaam": "epe", "rubriek": "gemeente" }, "geometry": { "type": "Point", "coordinates": [ 5.967725233372424, 52.33051875100432 ] } },
{ "type": "Feature", "properties": { "gml_id": "cbs_gemeente_2015_labelpoint.fid-63dcd447_151916311d1_-2a72", "id": 60723, "statcode": "gm0230", "statnaam": "elburg", "rubriek": "gemeente" }, "geometry": { "type": "Point", "coordinates": [ 5.840894667849885, 52.423385815320906 ] } },
{ "type": "Feature", "properties": { "gml_id": "cbs_gemeente_2015_labelpoint.fid-63dcd447_151916311d1_-2a71", "id": 60722, "statcode": "gm0228", "statnaam": "ede", "rubriek": "gemeente" }, "geometry": { "type": "Point", "coordinates": [ 5.74878791807155, 52.084241105152159 ] } },
{ "type": "Feature", "properties": { "gml_id": "cbs_gemeente_2015_labelpoint.fid-63dcd447_151916311d1_-2a70", "id": 60721, "statcode": "gm0226", "statnaam": "duiven", "rubriek": "gemeente" }, "geometry": { "type": "Point", "coordinates": [ 6.017166786741275, 51.947674821600216 ] } },
{ "type": "Feature", "properties": { "gml_id": "cbs_gemeente_2015_labelpoint.fid-63dcd447_151916311d1_-2a6f", "id": 60720, "statcode": "gm0225", "statnaam": "druten", "rubriek": "gemeente" }, "geometry": { "type": "Point", "coordinates": [ 5.607865628815583, 51.867892829542917 ] } },
{ "type": "Feature", "properties": { "gml_id": "cbs_gemeente_2015_labelpoint.fid-63dcd447_151916311d1_-2a6e", "id": 60719, "statcode": "gm0222", "statnaam": "doetinchem", "rubriek": "gemeente" }, "geometry": { "type": "Point", "coordinates": [ 6.280163177597729, 51.965125983586546 ] } },
{ "type": "Feature", "properties": { "gml_id": "cbs_gemeente_2015_labelpoint.fid-63dcd447_151916311d1_-2a6d", "id": 60718, "statcode": "gm0221", "statnaam": "doesburg", "rubriek": "gemeente" }, "geometry": { "type": "Point", "coordinates": [ 6.143610707008498, 52.018450725097203 ] } },
{ "type": "Feature", "properties": { "gml_id": "cbs_gemeente_2015_labelpoint.fid-63dcd447_151916311d1_-2a6c", "id": 60717, "statcode": "gm0216", "statnaam": "culemborg", "rubriek": "gemeente" }, "geometry": { "type": "Point", "coordinates": [ 5.206558722553684, 51.942807233729162 ] } },
{ "type": "Feature", "properties": { "gml_id": "cbs_gemeente_2015_labelpoint.fid-63dcd447_151916311d1_-2a6b", "id": 60716, "statcode": "gm0214", "statnaam": "buren", "rubriek": "gemeente" }, "geometry": { "type": "Point", "coordinates": [ 5.4142545713748, 51.944578468089311 ] } },
{ "type": "Feature", "properties": { "gml_id": "cbs_gemeente_2015_labelpoint.fid-63dcd447_151916311d1_-2a6a", "id": 60715, "statcode": "gm0213", "statnaam": "brummen", "rubriek": "gemeente" }, "geometry": { "type": "Point", "coordinates": [ 6.112461352525568, 52.113680867096164 ] } },
{ "type": "Feature", "properties": { "gml_id": "cbs_gemeente_2015_labelpoint.fid-63dcd447_151916311d1_-2a69", "id": 60714, "statcode": "gm0209", "statnaam": "beuningen", "rubriek": "gemeente" }, "geometry": { "type": "Point", "coordinates": [ 5.746747770773788, 51.859450990747341 ] } },
{ "type": "Feature", "properties": { "gml_id": "cbs_gemeente_2015_labelpoint.fid-63dcd447_151916311d1_-2a68", "id": 60713, "statcode": "gm0203", "statnaam": "barneveld", "rubriek": "gemeente" }, "geometry": { "type": "Point", "coordinates": [ 5.636359376231908, 52.162377810952755 ] } },
{ "type": "Feature", "properties": { "gml_id": "cbs_gemeente_2015_labelpoint.fid-63dcd447_151916311d1_-2a67", "id": 60712, "statcode": "gm0202", "statnaam": "arnhem", "rubriek": "gemeente" }, "geometry": { "type": "Point", "coordinates": [ 5.896758716843903, 51.992337307415852 ] } },
{ "type": "Feature", "properties": { "gml_id": "cbs_gemeente_2015_labelpoint.fid-63dcd447_151916311d1_-2a66", "id": 60711, "statcode": "gm0200", "statnaam": "apeldoorn", "rubriek": "gemeente" }, "geometry": { "type": "Point", "coordinates": [ 5.902579956775095, 52.185728624817486 ] } },
{ "type": "Feature", "properties": { "gml_id": "cbs_gemeente_2015_labelpoint.fid-63dcd447_151916311d1_-2a65", "id": 60710, "statcode": "gm0197", "statnaam": "aalten", "rubriek": "gemeente" }, "geometry": { "type": "Point", "coordinates": [ 6.56755705732622, 51.93019559566077 ] } },
{ "type": "Feature", "properties": { "gml_id": "cbs_gemeente_2015_labelpoint.fid-63dcd447_151916311d1_-2a64", "id": 60709, "statcode": "gm0196", "statnaam": "rijnwaarden", "rubriek": "gemeente" }, "geometry": { "type": "Point", "coordinates": [ 6.077128580972252, 51.886512749306299 ] } },
{ "type": "Feature", "properties": { "gml_id": "cbs_gemeente_2015_labelpoint.fid-63dcd447_151916311d1_-2a63", "id": 60708, "statcode": "gm0193", "statnaam": "zwolle", "rubriek": "gemeente" }, "geometry": { "type": "Point", "coordinates": [ 6.11554241255659, 52.509834047165306 ] } },
{ "type": "Feature", "properties": { "gml_id": "cbs_gemeente_2015_labelpoint.fid-63dcd447_151916311d1_-2a62", "id": 60707, "statcode": "gm0189", "statnaam": "wierden", "rubriek": "gemeente" }, "geometry": { "type": "Point", "coordinates": [ 6.557799410533141, 52.350184968202896 ] } },
{ "type": "Feature", "properties": { "gml_id": "cbs_gemeente_2015_labelpoint.fid-63dcd447_151916311d1_-2a61", "id": 60706, "statcode": "gm0184", "statnaam": "urk", "rubriek": "gemeente" }, "geometry": { "type": "Point", "coordinates": [ 5.624045685786447, 52.666260691519561 ] } },
{ "type": "Feature", "properties": { "gml_id": "cbs_gemeente_2015_labelpoint.fid-63dcd447_151916311d1_-2a60", "id": 60705, "statcode": "gm0183", "statnaam": "tubbergen", "rubriek": "gemeente" }, "geometry": { "type": "Point", "coordinates": [ 6.777179417335031, 52.417068606385307 ] } },
{ "type": "Feature", "properties": { "gml_id": "cbs_gemeente_2015_labelpoint.fid-63dcd447_151916311d1_-2a5f", "id": 60704, "statcode": "gm0180", "statnaam": "staphorst", "rubriek": "gemeente" }, "geometry": { "type": "Point", "coordinates": [ 6.212047455837016, 52.635486624625194 ] } },
{ "type": "Feature", "properties": { "gml_id": "cbs_gemeente_2015_labelpoint.fid-63dcd447_151916311d1_-2a5e", "id": 60703, "statcode": "gm0177", "statnaam": "raalte", "rubriek": "gemeente" }, "geometry": { "type": "Point", "coordinates": [ 6.27352906964756, 52.379296878647722 ] } },
{ "type": "Feature", "properties": { "gml_id": "cbs_gemeente_2015_labelpoint.fid-63dcd447_151916311d1_-2a5d", "id": 60702, "statcode": "gm0175", "statnaam": "ommen", "rubriek": "gemeente" }, "geometry": { "type": "Point", "coordinates": [ 6.466191932514157, 52.521983455084779 ] } },
{ "type": "Feature", "properties": { "gml_id": "cbs_gemeente_2015_labelpoint.fid-63dcd447_151916311d1_-2a5c", "id": 60701, "statcode": "gm0173", "statnaam": "oldenzaal", "rubriek": "gemeente" }, "geometry": { "type": "Point", "coordinates": [ 6.905267435038158, 52.309363202254367 ] } },
{ "type": "Feature", "properties": { "gml_id": "cbs_gemeente_2015_labelpoint.fid-63dcd447_151916311d1_-2a5b", "id": 60700, "statcode": "gm0171", "statnaam": "noordoostpolder", "rubriek": "gemeente" }, "geometry": { "type": "Point", "coordinates": [ 5.788956106239796, 52.70821847657524 ] } },
{ "type": "Feature", "properties": { "gml_id": "cbs_gemeente_2015_labelpoint.fid-63dcd447_151916311d1_-2a5a", "id": 60699, "statcode": "gm0168", "statnaam": "losser", "rubriek": "gemeente" }, "geometry": { "type": "Point", "coordinates": [ 7.001715078193662, 52.296624025023718 ] } },
{ "type": "Feature", "properties": { "gml_id": "cbs_gemeente_2015_labelpoint.fid-63dcd447_151916311d1_-2a59", "id": 60698, "statcode": "gm0166", "statnaam": "kampen", "rubriek": "gemeente" }, "geometry": { "type": "Point", "coordinates": [ 5.923198819840655, 52.546485509325784 ] } },
{ "type": "Feature", "properties": { "gml_id": "cbs_gemeente_2015_labelpoint.fid-63dcd447_151916311d1_-2a58", "id": 60697, "statcode": "gm0164", "statnaam": "hengelo", "rubriek": "gemeente" }, "geometry": { "type": "Point", "coordinates": [ 6.777710689461927, 52.266806007546123 ] } },
{ "type": "Feature", "properties": { "gml_id": "cbs_gemeente_2015_labelpoint.fid-63dcd447_151916311d1_-2a57", "id": 60696, "statcode": "gm0163", "statnaam": "hellendoorn", "rubriek": "gemeente" }, "geometry": { "type": "Point", "coordinates": [ 6.465439454800245, 52.384355384476841 ] } },
{ "type": "Feature", "properties": { "gml_id": "cbs_gemeente_2015_labelpoint.fid-63dcd447_151916311d1_-2a56", "id": 60695, "statcode": "gm0160", "statnaam": "hardenberg", "rubriek": "gemeente" }, "geometry": { "type": "Point", "coordinates": [ 6.567481585188716, 52.592518773557813 ] } },
{ "type": "Feature", "properties": { "gml_id": "cbs_gemeente_2015_labelpoint.fid-63dcd447_151916311d1_-2a55", "id": 60694, "statcode": "gm0158", "statnaam": "haaksbergen", "rubriek": "gemeente" }, "geometry": { "type": "Point", "coordinates": [ 6.756576609073897, 52.156147113070979 ] } },
{ "type": "Feature", "properties": { "gml_id": "cbs_gemeente_2015_labelpoint.fid-63dcd447_151916311d1_-2a54", "id": 60693, "statcode": "gm0153", "statnaam": "enschede", "rubriek": "gemeente" }, "geometry": { "type": "Point", "coordinates": [ 6.868473561700647, 52.218366235420312 ] } },
{ "type": "Feature", "properties": { "gml_id": "cbs_gemeente_2015_labelpoint.fid-63dcd447_151916311d1_-2a53", "id": 60692, "statcode": "gm0150", "statnaam": "deventer", "rubriek": "gemeente" }, "geometry": { "type": "Point", "coordinates": [ 6.241641898883718, 52.269472275690894 ] } },
{ "type": "Feature", "properties": { "gml_id": "cbs_gemeente_2015_labelpoint.fid-63dcd447_151916311d1_-2a52", "id": 60691, "statcode": "gm0148", "statnaam": "dalfsen", "rubriek": "gemeente" }, "geometry": { "type": "Point", "coordinates": [ 6.274735573314948, 52.52602404073815 ] } },
{ "type": "Feature", "properties": { "gml_id": "cbs_gemeente_2015_labelpoint.fid-63dcd447_151916311d1_-2a51", "id": 60690, "statcode": "gm0147", "statnaam": "borne", "rubriek": "gemeente" }, "geometry": { "type": "Point", "coordinates": [ 6.7457006220691, 52.308607885127124 ] } },
{ "type": "Feature", "properties": { "gml_id": "cbs_gemeente_2015_labelpoint.fid-63dcd447_151916311d1_-2a50", "id": 60689, "statcode": "gm0141", "statnaam": "almelo", "rubriek": "gemeente" }, "geometry": { "type": "Point", "coordinates": [ 6.659519555835813, 52.343534783775517 ] } },
{ "type": "Feature", "properties": { "gml_id": "cbs_gemeente_2015_labelpoint.fid-63dcd447_151916311d1_-2a4f", "id": 60688, "statcode": "gm0140", "statnaam": "littenseradiel", "rubriek": "gemeente" }, "geometry": { "type": "Point", "coordinates": [ 5.656819214484993, 53.125431471983518 ] } },
{ "type": "Feature", "properties": { "gml_id": "cbs_gemeente_2015_labelpoint.fid-63dcd447_151916311d1_-2a4e", "id": 60687, "statcode": "gm0119", "statnaam": "meppel", "rubriek": "gemeente" }, "geometry": { "type": "Point", "coordinates": [ 6.18938036544712, 52.703990584375354 ] } },
{ "type": "Feature", "properties": { "gml_id": "cbs_gemeente_2015_labelpoint.fid-63dcd447_151916311d1_-2a4d", "id": 61015, "statcode": "gm1783", "statnaam": "westland", "rubriek": "gemeente" }, "geometry": { "type": "Point", "coordinates": [ 4.219318978319085, 51.987996937459513 ] } },
{ "type": "Feature", "properties": { "gml_id": "cbs_gemeente_2015_labelpoint.fid-63dcd447_151916311d1_-2a4c", "id": 61014, "statcode": "gm1774", "statnaam": "dinkelland", "rubriek": "gemeente" }, "geometry": { "type": "Point", "coordinates": [ 6.920703910838681, 52.369480366294681 ] } },
{ "type": "Feature", "properties": { "gml_id": "cbs_gemeente_2015_labelpoint.fid-63dcd447_151916311d1_-2a4b", "id": 61013, "statcode": "gm1773", "statnaam": "olst-wijhe", "rubriek": "gemeente" }, "geometry": { "type": "Point", "coordinates": [ 6.154171137553214, 52.379519369269893 ] } },
{ "type": "Feature", "properties": { "gml_id": "cbs_gemeente_2015_labelpoint.fid-63dcd447_151916311d1_-2a4a", "id": 61012, "statcode": "gm1771", "statnaam": "geldrop-mierlo", "rubriek": "gemeente" }, "geometry": { "type": "Point", "coordinates": [ 5.590775560003347, 51.437291775300579 ] } },
{ "type": "Feature", "properties": { "gml_id": "cbs_gemeente_2015_labelpoint.fid-63dcd447_151916311d1_-2a49", "id": 61011, "statcode": "gm1742", "statnaam": "rijssen-holten", "rubriek": "gemeente" }, "geometry": { "type": "Point", "coordinates": [ 6.440226361789492, 52.289468290198464 ] } },
{ "type": "Feature", "properties": { "gml_id": "cbs_gemeente_2015_labelpoint.fid-63dcd447_151916311d1_-2a48", "id": 61010, "statcode": "gm1740", "statnaam": "neder-betuwe", "rubriek": "gemeente" }, "geometry": { "type": "Point", "coordinates": [ 5.582291995224709, 51.923566733106092 ] } },
{ "type": "Feature", "properties": { "gml_id": "cbs_gemeente_2015_labelpoint.fid-63dcd447_151916311d1_-2a47", "id": 61009, "statcode": "gm1735", "statnaam": "hof van twente", "rubriek": "gemeente" }, "geometry": { "type": "Point", "coordinates": [ 6.584086467270123, 52.225493172516387 ] } },
{ "type": "Feature", "properties": { "gml_id": "cbs_gemeente_2015_labelpoint.fid-63dcd447_151916311d1_-2a46", "id": 61008, "statcode": "gm1734", "statnaam": "overbetuwe", "rubriek": "gemeente" }, "geometry": { "type": "Point", "coordinates": [ 5.775960919730156, 51.918905849560865 ] } },
{ "type": "Feature", "properties": { "gml_id": "cbs_gemeente_2015_labelpoint.fid-63dcd447_151916311d1_-2a45", "id": 61007, "statcode": "gm1731", "statnaam": "midden-drenthe", "rubriek": "gemeente" }, "geometry": { "type": "Point", "coordinates": [ 6.543668988202192, 52.859569094114342 ] } },
{ "type": "Feature", "properties": { "gml_id": "cbs_gemeente_2015_labelpoint.fid-63dcd447_151916311d1_-2a44", "id": 61006, "statcode": "gm1730", "statnaam": "tynaarlo", "rubriek": "gemeente" }, "geometry": { "type": "Point", "coordinates": [ 6.597747326845145, 53.090872979318526 ] } },
{ "type": "Feature", "properties": { "gml_id": "cbs_gemeente_2015_labelpoint.fid-63dcd447_151916311d1_-2a43", "id": 61005, "statcode": "gm1729", "statnaam": "gulpen-wittem", "rubriek": "gemeente" }, "geometry": { "type": "Point", "coordinates": [ 5.901420910567325, 50.798464066387709 ] } },
{ "type": "Feature", "properties": { "gml_id": "cbs_gemeente_2015_labelpoint.fid-63dcd447_151916311d1_-2a42", "id": 61004, "statcode": "gm1728", "statnaam": "bladel", "rubriek": "gemeente" }, "geometry": { "type": "Point", "coordinates": [ 5.248473671100927, 51.36641256238623 ] } },
{ "type": "Feature", "properties": { "gml_id": "cbs_gemeente_2015_labelpoint.fid-63dcd447_151916311d1_-2a41", "id": 61003, "statcode": "gm1724", "statnaam": "bergeijk", "rubriek": "gemeente" }, "geometry": { "type": "Point", "coordinates": [ 5.341038307641456, 51.306018690620405 ] } },
{ "type": "Feature", "properties": { "gml_id": "cbs_gemeente_2015_labelpoint.fid-63dcd447_151916311d1_-2a40", "id": 61002, "statcode": "gm1723", "statnaam": "alphen-chaam", "rubriek": "gemeente" }, "geometry": { "type": "Point", "coordinates": [ 4.881775616985747, 51.503665681297242 ] } },
{ "type": "Feature", "properties": { "gml_id": "cbs_gemeente_2015_labelpoint.fid-63dcd447_151916311d1_-2a3f", "id": 61001, "statcode": "gm1722", "statnaam": "ferwerderadiel", "rubriek": "gemeente" }, "geometry": { "type": "Point", "coordinates": [ 5.827504255552678, 53.322226535075934 ] } },
{ "type": "Feature", "properties": { "gml_id": "cbs_gemeente_2015_labelpoint.fid-63dcd447_151916311d1_-2a3e", "id": 61000, "statcode": "gm1721", "statnaam": "bernheze", "rubriek": "gemeente" }, "geometry": { "type": "Point", "coordinates": [ 5.512038118237522, 51.68462527465028 ] } },
{ "type": "Feature", "properties": { "gml_id": "cbs_gemeente_2015_labelpoint.fid-63dcd447_151916311d1_-2a3d", "id": 60999, "statcode": "gm1719", "statnaam": "drimmelen", "rubriek": "gemeente" }, "geometry": { "type": "Point", "coordinates": [ 4.749560515608003, 51.694291532238672 ] } },
{ "type": "Feature", "properties": { "gml_id": "cbs_gemeente_2015_labelpoint.fid-63dcd447_151916311d1_-2a3c", "id": 60998, "statcode": "gm1714", "statnaam": "sluis", "rubriek": "gemeente" }, "geometry": { "type": "Point", "coordinates": [ 3.534327141418138, 51.34493944399464 ] } },
{ "type": "Feature", "properties": { "gml_id": "cbs_gemeente_2015_labelpoint.fid-63dcd447_151916311d1_-2a3b", "id": 60997, "statcode": "gm1711", "statnaam": "echt-susteren", "rubriek": "gemeente" }, "geometry": { "type": "Point", "coordinates": [ 5.915803650467532, 51.095726469794755 ] } },
{ "type": "Feature", "properties": { "gml_id": "cbs_gemeente_2015_labelpoint.fid-63dcd447_151916311d1_-2a3a", "id": 60996, "statcode": "gm1709", "statnaam": "moerdijk", "rubriek": "gemeente" }, "geometry": { "type": "Point", "coordinates": [ 4.543280199144561, 51.652932328667326 ] } },
{ "type": "Feature", "properties": { "gml_id": "cbs_gemeente_2015_labelpoint.fid-63dcd447_151916311d1_-2a39", "id": 60995, "statcode": "gm1708", "statnaam": "steenwijkerland", "rubriek": "gemeente" }, "geometry": { "type": "Point", "coordinates": [ 6.03457146388592, 52.742796291020809 ] } },
{ "type": "Feature", "properties": { "gml_id": "cbs_gemeente_2015_labelpoint.fid-63dcd447_151916311d1_-2a38", "id": 60994, "statcode": "gm1706", "statnaam": "cranendonck", "rubriek": "gemeente" }, "geometry": { "type": "Point", "coordinates": [ 5.593803566959476, 51.277277861284247 ] } },
{ "type": "Feature", "properties": { "gml_id": "cbs_gemeente_2015_labelpoint.fid-63dcd447_151916311d1_-2a37", "id": 60993, "statcode": "gm1705", "statnaam": "lingewaard", "rubriek": "gemeente" }, "geometry": { "type": "Point", "coordinates": [ 5.951571659444869, 51.905214159201911 ] } },
{ "type": "Feature", "properties": { "gml_id": "cbs_gemeente_2015_labelpoint.fid-63dcd447_151916311d1_-2a36", "id": 60992, "statcode": "gm1702", "statnaam": "sint anthonis", "rubriek": "gemeente" }, "geometry": { "type": "Point", "coordinates": [ 5.848762651321966, 51.62069932037091 ] } },
{ "type": "Feature", "properties": { "gml_id": "cbs_gemeente_2015_labelpoint.fid-63dcd447_151916311d1_-2a35", "id": 60991, "statcode": "gm1701", "statnaam": "westerveld", "rubriek": "gemeente" }, "geometry": { "type": "Point", "coordinates": [ 6.309257827520232, 52.847780413828325 ] } },
{ "type": "Feature", "properties": { "gml_id": "cbs_gemeente_2015_labelpoint.fid-63dcd447_151916311d1_-2a34", "id": 60990, "statcode": "gm1700", "statnaam": "twenterand", "rubriek": "gemeente" }, "geometry": { "type": "Point", "coordinates": [ 6.627584242651991, 52.441668295688942 ] } },
{ "type": "Feature", "properties": { "gml_id": "cbs_gemeente_2015_labelpoint.fid-63dcd447_151916311d1_-2a33", "id": 60989, "statcode": "gm1699", "statnaam": "noordenveld", "rubriek": "gemeente" }, "geometry": { "type": "Point", "coordinates": [ 6.422027043617131, 53.084423701036449 ] } },
{ "type": "Feature", "properties": { "gml_id": "cbs_gemeente_2015_labelpoint.fid-63dcd447_151916311d1_-2a32", "id": 60988, "statcode": "gm1696", "statnaam": "wijdemeren", "rubriek": "gemeente" }, "geometry": { "type": "Point", "coordinates": [ 5.084544176777253, 52.226732793414861 ] } },
{ "type": "Feature", "properties": { "gml_id": "cbs_gemeente_2015_labelpoint.fid-63dcd447_151916311d1_-2a31", "id": 60987, "statcode": "gm1695", "statnaam": "noord-beveland", "rubriek": "gemeente" }, "geometry": { "type": "Point", "coordinates": [ 3.768171689554226, 51.577467551041408 ] } },
{ "type": "Feature", "properties": { "gml_id": "cbs_gemeente_2015_labelpoint.fid-63dcd447_151916311d1_-2a30", "id": 60986, "statcode": "gm1690", "statnaam": "de wolden", "rubriek": "gemeente" }, "geometry": { "type": "Point", "coordinates": [ 6.354954303220311, 52.69037425469152 ] } },
{ "type": "Feature", "properties": { "gml_id": "cbs_gemeente_2015_labelpoint.fid-63dcd447_151916311d1_-2a2f", "id": 60985, "statcode": "gm1685", "statnaam": "landerd", "rubriek": "gemeente" }, "geometry": { "type": "Point", "coordinates": [ 5.659678840530948, 51.7158254514096 ] } },
{ "type": "Feature", "properties": { "gml_id": "cbs_gemeente_2015_labelpoint.fid-63dcd447_151916311d1_-2a2e", "id": 60984, "statcode": "gm1684", "statnaam": "cuijk", "rubriek": "gemeente" }, "geometry": { "type": "Point", "coordinates": [ 5.861973668982349, 51.714218224649912 ] } },
{ "type": "Feature", "properties": { "gml_id": "cbs_gemeente_2015_labelpoint.fid-63dcd447_151916311d1_-2a2d", "id": 60983, "statcode": "gm1681", "statnaam": "borger-odoorn", "rubriek": "gemeente" }, "geometry": { "type": "Point", "coordinates": [ 6.884369304588788, 52.904582938379903 ] } },
{ "type": "Feature", "properties": { "gml_id": "cbs_gemeente_2015_labelpoint.fid-63dcd447_151916311d1_-2a2c", "id": 60982, "statcode": "gm1680", "statnaam": "aa en hunze", "rubriek": "gemeente" }, "geometry": { "type": "Point", "coordinates": [ 6.750099200227941, 53.021274952734949 ] } },
{ "type": "Feature", "properties": { "gml_id": "cbs_gemeente_2015_labelpoint.fid-63dcd447_151916311d1_-2a2b", "id": 60981, "statcode": "gm1676", "statnaam": "schouwen-duiveland", "rubriek": "gemeente" }, "geometry": { "type": "Point", "coordinates": [ 3.918599524200663, 51.680077088525991 ] } },
{ "type": "Feature", "properties": { "gml_id": "cbs_gemeente_2015_labelpoint.fid-63dcd447_151916311d1_-2a2a", "id": 60980, "statcode": "gm1674", "statnaam": "roosendaal", "rubriek": "gemeente" }, "geometry": { "type": "Point", "coordinates": [ 4.41965365020411, 51.506657443420806 ] } },
{ "type": "Feature", "properties": { "gml_id": "cbs_gemeente_2015_labelpoint.fid-63dcd447_151916311d1_-2a29", "id": 60979, "statcode": "gm0484", "statnaam": "alphen aan den rijn", "rubriek": "gemeente" }, "geometry": { "type": "Point", "coordinates": [ 4.642828847868694, 52.114248301697664 ] } },
{ "type": "Feature", "properties": { "gml_id": "cbs_gemeente_2015_labelpoint.fid-63dcd447_151916311d1_-2a28", "id": 60978, "statcode": "gm1669", "statnaam": "roerdalen", "rubriek": "gemeente" }, "geometry": { "type": "Point", "coordinates": [ 6.046669062165265, 51.13285534216115 ] } },
{ "type": "Feature", "properties": { "gml_id": "cbs_gemeente_2015_labelpoint.fid-63dcd447_151916311d1_-2a27", "id": 60977, "statcode": "gm1667", "statnaam": "reusel-de mierden", "rubriek": "gemeente" }, "geometry": { "type": "Point", "coordinates": [ 5.137919829997986, 51.37166685532253 ] } },
{ "type": "Feature", "properties": { "gml_id": "cbs_gemeente_2015_labelpoint.fid-63dcd447_151916311d1_-2a26", "id": 60976, "statcode": "gm1663", "statnaam": "de marne", "rubriek": "gemeente" }, "geometry": { "type": "Point", "coordinates": [ 6.36273012860003, 53.366428963486086 ] } },
{ "type": "Feature", "properties": { "gml_id": "cbs_gemeente_2015_labelpoint.fid-63dcd447_151916311d1_-2a25", "id": 60975, "statcode": "gm1659", "statnaam": "laarbeek", "rubriek": "gemeente" }, "geometry": { "type": "Point", "coordinates": [ 5.609568714265604, 51.533643027921272 ] } },
{ "type": "Feature", "properties": { "gml_id": "cbs_gemeente_2015_labelpoint.fid-63dcd447_151916311d1_-2a24", "id": 60974, "statcode": "gm1658", "statnaam": "heeze-leende", "rubriek": "gemeente" }, "geometry": { "type": "Point", "coordinates": [ 5.564226175601006, 51.363169232183189 ] } },
{ "type": "Feature", "properties": { "gml_id": "cbs_gemeente_2015_labelpoint.fid-63dcd447_151916311d1_-2a23", "id": 60973, "statcode": "gm1655", "statnaam": "halderberge", "rubriek": "gemeente" }, "geometry": { "type": "Point", "coordinates": [ 4.52070613622758, 51.588046661090935 ] } },
{ "type": "Feature", "properties": { "gml_id": "cbs_gemeente_2015_labelpoint.fid-63dcd447_151916311d1_-2a22", "id": 60972, "statcode": "gm1652", "statnaam": "gemert-bakel", "rubriek": "gemeente" }, "geometry": { "type": "Point", "coordinates": [ 5.752029151462766, 51.540089248399795 ] } },
{ "type": "Feature", "properties": { "gml_id": "cbs_gemeente_2015_labelpoint.fid-63dcd447_151916311d1_-2a21", "id": 60971, "statcode": "gm1651", "statnaam": "eemsmond", "rubriek": "gemeente" }, "geometry": { "type": "Point", "coordinates": [ 6.669075181836503, 53.408412627879279 ] } },
{ "type": "Feature", "properties": { "gml_id": "cbs_gemeente_2015_labelpoint.fid-63dcd447_151916311d1_-2a20", "id": 60970, "statcode": "gm1641", "statnaam": "maasgouw", "rubriek": "gemeente" }, "geometry": { "type": "Point", "coordinates": [ 5.882021063177652, 51.173306081869171 ] } },
{ "type": "Feature", "properties": { "gml_id": "cbs_gemeente_2015_labelpoint.fid-63dcd447_151916311d1_-2a1f", "id": 60969, "statcode": "gm1640", "statnaam": "leudal", "rubriek": "gemeente" }, "geometry": { "type": "Point", "coordinates": [ 5.89170782504943, 51.241499285180467 ] } },
{ "type": "Feature", "properties": { "gml_id": "cbs_gemeente_2015_labelpoint.fid-63dcd447_151916311d1_-2a1e", "id": 60968, "statcode": "gm1621", "statnaam": "lansingerland", "rubriek": "gemeente" }, "geometry": { "type": "Point", "coordinates": [ 4.495128964230982, 51.999588676432282 ] } },
{ "type": "Feature", "properties": { "gml_id": "cbs_gemeente_2015_labelpoint.fid-63dcd447_151916311d1_-2a1d", "id": 60967, "statcode": "gm1598", "statnaam": "koggenland", "rubriek": "gemeente" }, "geometry": { "type": "Point", "coordinates": [ 4.949817325860294, 52.642128953330584 ] } },
{ "type": "Feature", "properties": { "gml_id": "cbs_gemeente_2015_labelpoint.fid-63dcd447_151916311d1_-2a1c", "id": 60966, "statcode": "gm1586", "statnaam": "oost gelre", "rubriek": "gemeente" }, "geometry": { "type": "Point", "coordinates": [ 6.572798097434234, 52.002576398921931 ] } },
{ "type": "Feature", "properties": { "gml_id": "cbs_gemeente_2015_labelpoint.fid-63dcd447_151916311d1_-2a1b", "id": 60965, "statcode": "gm1581", "statnaam": "utrechtse heuvelrug", "rubriek": "gemeente" }, "geometry": { "type": "Point", "coordinates": [ 5.394970205452581, 52.032413682869631 ] } },
{ "type": "Feature", "properties": { "gml_id": "cbs_gemeente_2015_labelpoint.fid-63dcd447_151916311d1_-2a1a", "id": 60964, "statcode": "gm1525", "statnaam": "teylingen", "rubriek": "gemeente" }, "geometry": { "type": "Point", "coordinates": [ 4.508056502324667, 52.217242500604712 ] } },
{ "type": "Feature", "properties": { "gml_id": "cbs_gemeente_2015_labelpoint.fid-63dcd447_151916311d1_-2a19", "id": 60963, "statcode": "gm1509", "statnaam": "oude ijsselstreek", "rubriek": "gemeente" }, "geometry": { "type": "Point", "coordinates": [ 6.41058299727039, 51.918300971541768 ] } },
{ "type": "Feature", "properties": { "gml_id": "cbs_gemeente_2015_labelpoint.fid-63dcd447_151916311d1_-2a18", "id": 60962, "statcode": "gm1507", "statnaam": "horst aan de maas", "rubriek": "gemeente" }, "geometry": { "type": "Point", "coordinates": [ 6.046775488362629, 51.445536851585615 ] } },
{ "type": "Feature", "properties": { "gml_id": "cbs_gemeente_2015_labelpoint.fid-63dcd447_151916311d1_-2a17", "id": 60961, "statcode": "gm0995", "statnaam": "lelystad", "rubriek": "gemeente" }, "geometry": { "type": "Point", "coordinates": [ 5.4320650079622, 52.474315567727004 ] } },
{ "type": "Feature", "properties": { "gml_id": "cbs_gemeente_2015_labelpoint.fid-63dcd447_151916311d1_-2a16", "id": 60960, "statcode": "gm0994", "statnaam": "valkenburg aan de geul", "rubriek": "gemeente" }, "geometry": { "type": "Point", "coordinates": [ 5.818728873774534, 50.859270755954341 ] } },
{ "type": "Feature", "properties": { "gml_id": "cbs_gemeente_2015_labelpoint.fid-63dcd447_151916311d1_-2a15", "id": 60959, "statcode": "gm0988", "statnaam": "weert", "rubriek": "gemeente" }, "geometry": { "type": "Point", "coordinates": [ 5.678902876233658, 51.232070613520463 ] } },
{ "type": "Feature", "properties": { "gml_id": "cbs_gemeente_2015_labelpoint.fid-63dcd447_151916311d1_-2a14", "id": 60958, "statcode": "gm0986", "statnaam": "voerendaal", "rubriek": "gemeente" }, "geometry": { "type": "Point", "coordinates": [ 5.91554278413536, 50.875219723332897 ] } },
{ "type": "Feature", "properties": { "gml_id": "cbs_gemeente_2015_labelpoint.fid-63dcd447_151916311d1_-2a13", "id": 60957, "statcode": "gm0984", "statnaam": "venray", "rubriek": "gemeente" }, "geometry": { "type": "Point", "coordinates": [ 5.971416370938835, 51.514137076280761 ] } },
{ "type": "Feature", "properties": { "gml_id": "cbs_gemeente_2015_labelpoint.fid-63dcd447_151916311d1_-2a12", "id": 60956, "statcode": "gm0983", "statnaam": "venlo", "rubriek": "gemeente" }, "geometry": { "type": "Point", "coordinates": [ 6.148635639448419, 51.348320182455581 ] } },
{ "type": "Feature", "properties": { "gml_id": "cbs_gemeente_2015_labelpoint.fid-63dcd447_151916311d1_-2a11", "id": 60955, "statcode": "gm0981", "statnaam": "vaals", "rubriek": "gemeente" }, "geometry": { "type": "Point", "coordinates": [ 5.974313174978909, 50.780713958929631 ] } },
{ "type": "Feature", "properties": { "gml_id": "cbs_gemeente_2015_labelpoint.fid-63dcd447_151916311d1_-2a10", "id": 60954, "statcode": "gm0971", "statnaam": "stein", "rubriek": "gemeente" }, "geometry": { "type": "Point", "coordinates": [ 5.769954737472501, 50.965295444586722 ] } },
{ "type": "Feature", "properties": { "gml_id": "cbs_gemeente_2015_labelpoint.fid-63dcd447_151916311d1_-2a0f", "id": 60953, "statcode": "gm0965", "statnaam": "simpelveld", "rubriek": "gemeente" }, "geometry": { "type": "Point", "coordinates": [ 5.988991162287262, 50.826904619216634 ] } },
{ "type": "Feature", "properties": { "gml_id": "cbs_gemeente_2015_labelpoint.fid-63dcd447_151916311d1_-2a0e", "id": 60952, "statcode": "gm0962", "statnaam": "schinnen", "rubriek": "gemeente" }, "geometry": { "type": "Point", "coordinates": [ 5.891135798913602, 50.953586289262475 ] } },
{ "type": "Feature", "properties": { "gml_id": "cbs_gemeente_2015_labelpoint.fid-63dcd447_151916311d1_-2a0d", "id": 60951, "statcode": "gm0957", "statnaam": "roermond", "rubriek": "gemeente" }, "geometry": { "type": "Point", "coordinates": [ 6.003604666178393, 51.199655530419619 ] } },
{ "type": "Feature", "properties": { "gml_id": "cbs_gemeente_2015_labelpoint.fid-63dcd447_151916311d1_-2a0c", "id": 60950, "statcode": "gm0951", "statnaam": "nuth", "rubriek": "gemeente" }, "geometry": { "type": "Point", "coordinates": [ 5.86066104107556, 50.904428705011028 ] } },
{ "type": "Feature", "properties": { "gml_id": "cbs_gemeente_2015_labelpoint.fid-63dcd447_151916311d1_-2a0b", "id": 60949, "statcode": "gm0946", "statnaam": "nederweert", "rubriek": "gemeente" }, "geometry": { "type": "Point", "coordinates": [ 5.760693870337266, 51.294704490277681 ] } },
{ "type": "Feature", "properties": { "gml_id": "cbs_gemeente_2015_labelpoint.fid-63dcd447_151916311d1_-2a0a", "id": 60948, "statcode": "gm0944", "statnaam": "mook en middelaar", "rubriek": "gemeente" }, "geometry": { "type": "Point", "coordinates": [ 5.901335081925174, 51.744990838333933 ] } },
{ "type": "Feature", "properties": { "gml_id": "cbs_gemeente_2015_labelpoint.fid-63dcd447_151916311d1_-2a09", "id": 60947, "statcode": "gm0938", "statnaam": "meerssen", "rubriek": "gemeente" }, "geometry": { "type": "Point", "coordinates": [ 5.757237635400813, 50.882890920143524 ] } },
{ "type": "Feature", "properties": { "gml_id": "cbs_gemeente_2015_labelpoint.fid-63dcd447_151916311d1_-2a08", "id": 60946, "statcode": "gm0935", "statnaam": "maastricht", "rubriek": "gemeente" }, "geometry": { "type": "Point", "coordinates": [ 5.700910512948383, 50.85965951596301 ] } },
{ "type": "Feature", "properties": { "gml_id": "cbs_gemeente_2015_labelpoint.fid-63dcd447_151916311d1_-2a07", "id": 60945, "statcode": "gm0928", "statnaam": "kerkrade", "rubriek": "gemeente" }, "geometry": { "type": "Point", "coordinates": [ 6.05551667096895, 50.873542671032858 ] } },
{ "type": "Feature", "properties": { "gml_id": "cbs_gemeente_2015_labelpoint.fid-63dcd447_151916311d1_-2a06", "id": 60944, "statcode": "gm0917", "statnaam": "heerlen", "rubriek": "gemeente" }, "geometry": { "type": "Point", "coordinates": [ 5.961395629904239, 50.902066928659039 ] } },
{ "type": "Feature", "properties": { "gml_id": "cbs_gemeente_2015_labelpoint.fid-63dcd447_151916311d1_-2a05", "id": 60943, "statcode": "gm0907", "statnaam": "gennep", "rubriek": "gemeente" }, "geometry": { "type": "Point", "coordinates": [ 5.981877627497239, 51.692583289877774 ] } },
{ "type": "Feature", "properties": { "gml_id": "cbs_gemeente_2015_labelpoint.fid-63dcd447_151916311d1_-2a04", "id": 60942, "statcode": "gm0899", "statnaam": "brunssum", "rubriek": "gemeente" }, "geometry": { "type": "Point", "coordinates": [ 5.973343263511925, 50.945217056509051 ] } },